INDIVIDUAL_ID,LOCALITY,COUNTRY,LATITUDE,N_S,LONGITUDE,E_W
x1397,25-km-N-Rijeka-Gomance,Croatia,45.3270631,N,14.442176,E
x73,4-km-NE-Kalpaki,Greece,39.886025,N,20.6256658,E
x1151,Aargau-Aarau-Rohr,Switzerland,47.41,N,8.0921,E
x1152,Aargau-Aarau-Rohr,Switzerland,47.41,N,8.0921,E
x1153,Aargau-Aarau-Rohr,Switzerland,47.41,N,8.0921,E
x1320,Aargau-Aarau-Rohr,Switzerland,47.41,N,8.0921,E
x1321,Aargau-Aarau-Rohr,Switzerland,47.41,N,8.0921,E
x1322,Aargau-Aarau-Rohr,Switzerland,47.41,N,8.0921,E
x10,Aargau-Bad-Zurzach,Switzerland,47.579727039,N,8.307017961,E
x1011,Aargau-Bad-Zurzach,Switzerland,47.579727039,N,8.307017961,E
x1012,Aargau-Bad-Zurzach,Switzerland,47.579727039,N,8.307017961,E
x1013,Aargau-Bad-Zurzach,Switzerland,47.579727039,N,8.307017961,E
x1014,Aargau-Bad-Zurzach,Switzerland,47.579727039,N,8.307017961,E
x1015,Aargau-Bad-Zurzach,Switzerland,47.579727039,N,8.307017961,E
x1016,Aargau-Bad-Zurzach,Switzerland,47.579727039,N,8.307017961,E
x1017,Aargau-Bad-Zurzach,Switzerland,47.579727039,N,8.307017961,E
x1018,Aargau-Bad-Zurzach,Switzerland,47.579727039,N,8.307017961,E
x1019,Aargau-Bad-Zurzach,Switzerland,47.579727039,N,8.307017961,E
x1020,Aargau-Bad-Zurzach,Switzerland,47.579727039,N,8.307017961,E
x11,Aargau-Bad-Zurzach,Switzerland,47.579727039,N,8.307017961,E
x12,Aargau-Bad-Zurzach,Switzerland,47.579727039,N,8.307017961,E
x13,Aargau-Bad-Zurzach,Switzerland,47.579727039,N,8.307017961,E
x14,Aargau-Bad-Zurzach,Switzerland,47.579727039,N,8.307017961,E
x15,Aargau-Bad-Zurzach,Switzerland,47.579727039,N,8.307017961,E
x16,Aargau-Bad-Zurzach,Switzerland,47.579727039,N,8.307017961,E
x17,Aargau-Bad-Zurzach,Switzerland,47.579727039,N,8.307017961,E
x8,Aargau-Bad-Zurzach,Switzerland,47.579727039,N,8.307017961,E
x9,Aargau-Bad-Zurzach,Switzerland,47.579727039,N,8.307017961,E
21981,Aargau-Böttstein,Switzerland,47.5652,N,8.251178732,E
21982,Aargau-Böttstein,Switzerland,47.5652,N,8.251178732,E
x1091,Aargau-Böttstein,Switzerland,47.5652,N,8.251178732,E
x1092,Aargau-Böttstein,Switzerland,47.5652,N,8.251178732,E
x1044,Aargau-Brugg,Switzerland,47.4852,N,8.2347,E
x1045,Aargau-Brugg,Switzerland,47.4852,N,8.2347,E
x1046,Aargau-Brugg,Switzerland,47.4852,N,8.2347,E
x122,Aargau-Brugg,Switzerland,47.4852,N,8.2347,E
x123,Aargau-Brugg,Switzerland,47.4852,N,8.2347,E
x124,Aargau-Brugg,Switzerland,47.4852,N,8.2347,E
21983,Aargau-Eiken,Switzerland,47.5433,N,7.998500483,E
22006,Aargau-Eiken,Switzerland,47.5433,N,7.998500483,E
22007,Aargau-Eiken,Switzerland,47.5433,N,7.998500483,E
x1003,Aargau-Eiken,Switzerland,47.5433,N,7.998500483,E
x1004,Aargau-Eiken,Switzerland,47.5433,N,7.998500483,E
x1005,Aargau-Eiken,Switzerland,47.5433,N,7.998500483,E
x1077,Aargau-Gippingen,Switzerland,47.5962,N,8.217445797,E
x1078,Aargau-Gippingen,Switzerland,47.5962,N,8.217445797,E
x1079,Aargau-Gippingen,Switzerland,47.5962,N,8.217445797,E
x1080,Aargau-Gippingen,Switzerland,47.5962,N,8.217445797,E
x1081,Aargau-Gippingen,Switzerland,47.5962,N,8.217445797,E
x153,Aargau-Gippingen,Switzerland,47.5962,N,8.217445797,E
x154,Aargau-Gippingen,Switzerland,47.5962,N,8.217445797,E
x155,Aargau-Gippingen,Switzerland,47.5962,N,8.217445797,E
x156,Aargau-Gippingen,Switzerland,47.5962,N,8.217445797,E
x157,Aargau-Gippingen,Switzerland,47.5962,N,8.217445797,E
x1093,Aargau-Klingnau,Switzerland,47.5885,N,8.2381,E
x167,Aargau-Klingnau,Switzerland,47.5885,N,8.2381,E
x1121,Aargau-Merenschwand,Switzerland,47.2594048,N,8.3749207,E
x1200,Aargau-Merenschwand,Switzerland,47.2594048,N,8.3749207,E
21962,Aargau-Rietheim,Switzerland,47.60677818,N,8.274438483,E
x1150,Aargau-Rietheim,Switzerland,47.60677818,N,8.274438483,E
x1154,Aargau-Rottenschwil,Switzerland,47.324481684,N,8.3676,E
x1323,Aargau-Rottenschwil,Switzerland,47.324481684,N,8.3676,E
x1389,Aegean-Region-between-Söke-and-Doganbey,Turkey,37.617058,N,27.177275,E
x1466,Aegean-Region-Dalyan,Turkey,36.834258,N,28.642607,E
x232,Aegean-Region-Selçuk,Turkey,37.950845,N,27.369954,E
x233,Aegean-Region-Selçuk,Turkey,37.950845,N,27.369954,E
x234,Aegean-Region-Selçuk,Turkey,37.950845,N,27.369954,E
x354,Akershus-Ski,Norway,59.7196318,N,10.8358795,E
x355,Akershus-Ski,Norway,59.7196318,N,10.8358795,E
x1554,Akershus-Son,Norway,59.5239438,N,10.6892228,E
x440,Akhaldaba,Georgia,41.9253854,N,43.4907611,E
x441,Akhaldaba,Georgia,41.9253854,N,43.4907611,E
x364,Aland,Finland,60.1785247,N,19.9156105,E
x365,Aland,Finland,60.1785247,N,19.9156105,E
x367,Aland,Finland,60.1785247,N,19.9156105,E
x370,Aland-Finström,Finland,60.2299128,N,19.9880632,E
x368,Aland-Lemland-Bergö,Finland,61.92411,N,25.748151,E
x369,Aland-Lemland-Natö,Finland,60.0459338,N,19.9743588,E
x240,Albena,Bulgaria,43.3678194,N,28.080069,E
x49,Alpes-de-Haute-Provence-Clumanc,France,44.02,N,6.38,E
x82,Alpes-de-Haute-Provence-Clumanc,France,44.02,N,6.38,E
x618,Amstelveen,Netherlands,52.2942064,N,4.8419936,E
x619,Amstelveen,Netherlands,52.2942064,N,4.8419936,E
x620,Amstelveen,Netherlands,52.2942064,N,4.8419936,E
21773,Amsterdam-IJ,Netherlands,52.386287,N,4.896612,E
21774,Amsterdam-IJ,Netherlands,52.386287,N,4.896612,E
x353,Andebu-Ilestadvannet,Norway,59.3059204,N,10.1765277,E
x835,Apulia-Bari-Conversano-Sassano,Italy,40.968759,N,17.097258,E
x836,Apulia-Bari-Conversano-Castiglione,Italy,40.926582,N,17.128559,E
x834,Apulia-Bari-Ruvo-di-Puglia-Taverna-nuova,Italy,40.995271,N,16.300986,E
x204,Apulia-Lecce-San-Cataldo,Italy,40.396372,N,18.294305,E
x205,Apulia-Lecce-San-Cataldo,Italy,40.396372,N,18.294305,E
x837,Apulia-Lecce-Vernole-Cesine,Italy,40.36219,N,18.327296,E
x838,Apulia-Lecce-Vernole-Cesine,Italy,40.36219,N,18.327296,E
x839,Apulia-Lecce-Vernole-Cesine,Italy,40.36219,N,18.327296,E
x840,Apulia-Lecce-Vernole-Cesine,Italy,40.36219,N,18.327296,E
x841,Apulia-Lecce-Vernole-Cesine,Italy,40.36219,N,18.327296,E
x842,Apulia-Lecce-Vernole-Cesine,Italy,40.36219,N,18.327296,E
x844,Apulia-Tarent-Martina-Franca,Italy,40.746396,N,17.259578,E
21927,Aragon-Nerín,Spain,42.603642,N,0.021744,E
x1401,Ardeche-N-Tournon-sur-Rhône,France,45.068575,N,4.831712,E
21834,Ariege-Astien,France,42.9402333,N,1.0623333,E
21835,Ariege-Aulus-les-Bains,France,42.779289,N,1.390217,E
21916,Ariege-Bélesta,France,42.867869,N,1.977429,E
21836,Ariege-Bélesta,France,42.867869,N,1.977429,E
21837,Ariege-Caumont,France,43.024266,N,1.091038,E
21917,Ariege-Fougax-et-Barrineuf,France,42.871101,N,1.89076,E
21839,Ariege-La-Bastide-de-Bousignac,France,43.051194,N,1.903771,E
21838,Ariege-La-Bastide-de-Bousignac,France,43.051194,N,1.903771,E
21840,Ariege-La-Bastide-de-Bousignac,France,43.051194,N,1.903771,E
21918,Ariege-Lac-de-Montbel,France,42.980037,N,1.961031,E
21841,Ariege-Le-Mas-dAzil,France,43.024572,N,1.330668,E
21842,Ariege-Léran,France,42.9835,N,1.9387,E
21843,Ariege-Malegoude,France,43.114101,N,1.92,E
21844,Ariege-Mirepoix,France,43.094244,N,1.915939,E
21845,Ariege-Montbel,France,42.9715,N,1.959265,E
21846,Ariege-Moulis,France,42.9529,N,1.0772,E
21847,Ariege-Ossese,France,42.7652694,N,1.2622,E
21848,Ariege-Prades,France,42.7695,N,1.8653,E
21849,Ariege-Rimont,France,43.00307,N,1.306601,E
21919,Ariege-Rouze,France,42.726187,N,2.079672,E
x88,Ariege-Savignac-les-Ormeaux,France,42.7291,N,1.818,E
21850,Ariege-Verdun,France,42.81036,N,1.70229,E
x1408,Arkutino,Bulgaria,42.3346499,N,27.7263557,E
x289,Arkutino,Bulgaria,42.3346499,N,27.7263557,E
x280,Asenovgrad-Asenovitza-river,Bulgaria,42.0133722,N,24.8784393,E
21928,Asturias-Santa-Eugenia,Spain,43.4639,N,-5.363971,W
x708,Asturias-Urbiés,Spain,43.2176,N,-5.6727,W
x114,Aude-5-km-W-Narbonne-near-Abbey-of-Fontfroide,France,43.1325,N,2.8934,E
21920,Aude-Couffoulens,France,43.17614,N,2.2984,E
21851,Aude-Escueillens-et-Saint-Just-de-Bélengard,France,43.094767,N,2.029152,E
21852,Aude-Malvies,France,43.10686,N,2.18195,E
21853,Aude-Mireval-Lauragais,France,43.2646,N,1.9701,E
x113,Aude-N-Tuchan,France,42.8989,N,2.7418,E
21854,Aude-Puivert,France,42.91633,N,2.0493,E
x116,Aude-S-Tuchan,France,42.8784,N,2.7194,E
21855,Aude-Saissac,France,43.3712,N,2.1886,E
21921,Aude-Tuchan,France,42.890052,N,2.717628,E
21922,Aude-Tuchan,France,42.890052,N,2.717628,E
21923,Aude-Tuchan,France,42.890052,N,2.717628,E
21856,Aveyron-Laguiole,France,44.682,N,2.926011,E
x53,Aveyron-Peyrusse-le-Roc,France,44.494914,N,2.1409,E
x90,Aveyron-Peyrusse-le-Roc,France,44.494914,N,2.1409,E
21857,Aveyron-St-Chely-dAubrac,France,44.591311,N,2.921214,E
x1388,Aveyron-St-Chely-dAubrac,France,44.591311,N,2.921214,E
21896,Baden-Württemberg-Alexanderschanze,Germany,48.4786,N,8.282931689,E
x823,Baden-Württemberg-Bad-Ueberkingen,Germany,48.6007224,N,9.7981479,E
21957,Baden-Württemberg-Bad-Waldsee,Germany,47.919679,N,9.798016,E
21958,Baden-Württemberg-Bad-Wurzach,Germany,47.90898,N,9.895484,E
21959,Baden-Württemberg-Bad-Wurzach,Germany,47.90898,N,9.895484,E
21670,Baden-Württemberg-Berau,Germany,47.691039160171,N,8.244134293,E
x831,Baden-Württemberg-Bermatingen-Hofgut-Wiggenweiler,Germany,47.74461,N,9.36242,E
x832,Baden-Württemberg-Bermatingen-Hofgut-Wiggenweiler,Germany,47.74461,N,9.36242,E
x833,Baden-Württemberg-Bermatingen-Hofgut-Wiggenweiler,Germany,47.74461,N,9.36242,E
x829,Baden-Württemberg-between-Bad-Überkingen-and-Hausen,Germany,48.6007224,N,9.7981479,E
x1456,Baden-Württemberg-between-Leonberg-and-Gerlingen,Germany,48.7989751,N,9.0657713,E
21897,Baden-Württemberg-between-Wallberg-and-Münchweier,Germany,48.47126499,N,8.12520196132543,E
x816,Baden-Württemberg-between-Welschingen-and-Binningen,Germany,47.818337139801,N,8.7361880889981,E
x817,Baden-Württemberg-between-Welschingen-and-Binningen,Germany,47.818337139801,N,8.7361880889981,E
21671,Baden-Württemberg-Böhringer-See,Germany,47.761325,N,8.938533,E
x217,Baden-Württemberg-Böhringer-See,Germany,47.761325,N,8.938533,E
x819,Baden-Württemberg-Bopfingen-Rohrbachsiedlung,Germany,48.837055,N,10.400482,E
21672,Baden-Württemberg-Bronnbach,Germany,49.711441,N,9.547249,E
x905,Baden-Württemberg-Degersee-near-Wettis,Germany,47.608653,N,9.644115,E
x821,Baden-Württemberg-Filderstadt-Bonlanden-Hof-Gutenhalde,Germany,48.6394313,N,9.2237987,E
x830,Baden-Württemberg-Filderstadt-Plattenhardt,Germany,48.645564981024,N,9.1983271240537,E
21673,Baden-Württemberg-Freudenstadt,Germany,48.464057,N,8.411093,E
21674,Baden-Württemberg-Gamburg,Germany,49.693907,N,9.600936,E
x824,Baden-Württemberg-Geislingen-a-d-St-NSG-Rohrachtal,Germany,48.597246594228,N,9.842528818657,E
x825,Baden-Württemberg-Geislingen-a-d-St-NSG-Rohrachtal,Germany,48.597246594228,N,9.842528818657,E
21675,Baden-Württemberg-Harpolingen,Germany,47.569763,N,8.0037,E
21898,Baden-Württemberg-Hartheim,Germany,47.9349,N,7.6203,E
x813,Baden-Württemberg-Hechingen,Germany,48.363902399931,N,8.9204631112376,E
x814,Baden-Württemberg-Hechingen,Germany,48.363902399931,N,8.9204631112376,E
x815,Baden-Württemberg-Hechingen,Germany,48.363902399931,N,8.9204631112376,E
21979,Baden-Württemberg-Herten-Degerfelden,Germany,47.5558835,N,7.7333925,E
x822,Baden-Württemberg-Hochdorf-Gewann-Eisenwinkel,Germany,48.6935836,N,9.4667477,E
21899,Baden-Württemberg-Hoellentalbahn-km-166,Germany,48.1816012333333,N,8.459443288,E
21980,Baden-Württemberg-Kandern,Germany,47.714774,N,7.661812,E
21676,Baden-Württemberg-Kappel-Grafenhausen,Germany,48.291419,N,7.743689,E
21678,Baden-Württemberg-Karlsruhe,Germany,48.9993,N,8.410844,E
21677,Baden-Württemberg-Karlsruhe,Germany,48.9993,N,8.410844,E
x1353,Baden-Württemberg-Karlsruhe,Germany,48.9993,N,8.410844,E
x1351,Baden-Württemberg-Karlsruhe-between-Staffort-and-Weingarten,Germany,49.0673,N,8.516951,E
21679,Baden-Württemberg-Karlsruhe-Oberwaldsee,Germany,48.9896,N,8.429297,E
21680,Baden-Württemberg-Kniebis,Germany,48.4715,N,8.311476,E
21681,Baden-Württemberg-Laufenburg-Grunholz,Germany,47.5773674951769,N,8.086823445,E
x1352,Baden-Württemberg-Linkenheim-,Germany,49.128151,N,8.4109,E
x827,Baden-Württemberg-Litzenstetten,Germany,47.7134638,N,9.1738351,E
21682,Baden-Württemberg-lower-Neckar-valley,Germany,49.404869,N,9.043017,E
x1354,Baden-Württemberg-Ludwigsburg,Germany,48.8891149,N,9.1942834,E
21960,Baden-Württemberg-Mettnau,Germany,47.728355,N,8.997273,E
x811,Baden-Württemberg-near-Ettlingen,Germany,48.943208,N,8.3980172,E
x1361,Baden-Württemberg-near-Gerlingen-Krummbachtal,Germany,48.797946,N,9.064972,E
x1362,Baden-Württemberg-near-Gerlingen-Krummbachtal,Germany,48.797946,N,9.064972,E
x1360,Baden-Württemberg-near-Heilbronn-Reichertshausen,Germany,49.3149964,N,9.3060166,E
x809,Baden-Württemberg-Neckartal-Feuerbergtunnel,Germany,49.0533967960908,N,8.94780304868189,E
x810,Baden-Württemberg-Neckartal-Feuerbergtunnel,Germany,49.0533967960908,N,8.94780304868189,E
x820,Baden-Württemberg-Neckartal-near-Lanzenbach,Germany,49.0858846942478,N,9.91625678657715,E
21900,Baden-Württemberg-Neustadt,Germany,47.9145799302287,N,8.20759336026993,E
21683,Baden-Württemberg-Oberweissach,Germany,48.920807,N,9.503081,E
x215,Baden-Württemberg-Oberweissach,Germany,48.920807,N,9.503081,E
x1357,Baden-Württemberg-Ohmden-Jesingen,Germany,48.644195,N,9.505734,E
21684,Baden-Württemberg-Ottenhöfen,Germany,48.569632,N,8.1487,E
21901,Baden-Württemberg-Philippsburg-Elisabethenwoerth,Germany,49.20084629,N,8.40473763,E
21685,Baden-Württemberg-Präg,Germany,47.779,N,7.967429,E
21686,Baden-Württemberg-Präg,Germany,47.779,N,7.967429,E
x793,Baden-Württemberg-Präg,Germany,47.779,N,7.967429,E
x794,Baden-Württemberg-Präg,Germany,47.779,N,7.967429,E
x795,Baden-Württemberg-Präg,Germany,47.779,N,7.967429,E
x796,Baden-Württemberg-Präg,Germany,47.779,N,7.967429,E
x818,Baden-Württemberg-Radolfzell-Aachried,Germany,47.738146412558,N,8.9255604027687,E
21902,Baden-Württemberg-Renchflutkanal,Germany,48.612,N,7.9633770528115,E
21903,Baden-Württemberg-Rheinstetten-NGS-Allmendäcker,Germany,48.958769,N,8.324868,E
21688,Baden-Württemberg-Riedlingen,Germany,48.159274,N,9.470853,E
21687,Baden-Württemberg-Riedlingen,Germany,48.159274,N,9.470853,E
x757,Baden-Württemberg-Riedlingen,Germany,48.159274,N,9.470853,E
x758,Baden-Württemberg-Riedlingen,Germany,48.159274,N,9.470853,E
x759,Baden-Württemberg-Riedlingen,Germany,48.159274,N,9.470853,E
21689,Baden-Württemberg-Schiltach,Germany,48.293466520478,N,8.35204989691076,E
21690,Baden-Württemberg-Schriesheim,Germany,49.474594,N,8.661633,E
x812,Baden-Württemberg-Stuttgart,Germany,48.7758459,N,9.1829321,E
x1363,Baden-Württemberg-Stuttgart-Botnang,Germany,48.77653,N,9.119021,E
x1364,Baden-Württemberg-Stuttgart-Feuerbach,Germany,48.8116009,N,9.1589461,E
x1356,Baden-Württemberg-Stuttgart-Hohenheim,Germany,48.715394,N,9.2170429,E
x1365,Baden-Württemberg-Stuttgart-Hohenheim-Uni-Campus-Eiszeitsee,Germany,48.7118737,N,9.2117516,E
x1355,Baden-Württemberg-Stuttgart-Vaihingen,Germany,48.7303646,N,9.1079418,E
21691,Baden-Württemberg-Sulz-Fischingen,Germany,48.38153322,N,8.67439765345396,E
21904,Baden-Württemberg-Taubergießen,Germany,48.29,N,7.706715622,E
21905,Baden-Württemberg-Tennenbach,Germany,48.1454,N,7.8936,E
x890,Baden-Württemberg-Tiefenbach-Federsee,Germany,48.0879742,N,9.6524125,E
21692,Baden-Württemberg-Tübingen-Wurmlingen,Germany,48.501251,N,8.962426,E
21906,Baden-Württemberg-Ubstadt-Weiher,Germany,49.178777376774,N,8.6219159174146,E
x826,Baden-Württemberg-Unterreichenbach,Germany,48.825252,N,8.7087185,E
21907,Baden-Württemberg-Winden-Erzenbachtalstrasse,Germany,48.14761726,N,8.051215643,E
x828,Baden-Württemberg-Wollmatinger-Ried,Germany,47.6860268,N,9.113154,E
21908,Baden-Württemberg-Zell-Weierbach,Germany,48.47186132241,N,7.9738078488485,E
21693,Baden-Württemberg-Zwiefalten,Germany,48.2260479515204,N,9.486665641,E
x1491,Baixo-Vouga-W-Loure,Portugal,40.6436,N,-8.5557,W
22116,Balaton-Balatonszepezd,Hungary,46.851035,N,17.658091,E
x1406,Balaton-Balatonszepezd,Hungary,46.851035,N,17.658091,E
22117,Balaton-Tihany,Hungary,46.908383,N,17.880929,E
22118,Balaton-Tihany,Hungary,46.908383,N,17.880929,E
x1451,Balaton-Tihany,Hungary,46.908383,N,17.880929,E
x316,Balaton-Tihany,Hungary,46.908383,N,17.880929,E
21929,Barcelona-Montseny,Spain,41.76646,N,2.4645,E
x1426,Barcs,Hungary,45.9584735,N,17.4613774,E
22025,Bartošovice,Czech Republic,49.669517,N,18.054471,E
21667,Bas-Rhin-Strasbourg,France,48.5956684333333,N,7.78770376666667,E
x1149,Basel-Landschaft-Binningen,Switzerland,47.5364,N,7.5506,E
x1319,Basel-Landschaft-Binningen,Switzerland,47.5364,N,7.5506,E
x1115,Basel-Landschaft-Liestal,Switzerland,47.4703,N,7.714,E
x195,Basel-Landschaft-Liestal,Switzerland,47.4703,N,7.714,E
x1148,Basel-Landschaft-Pratteln,Switzerland,47.5015,N,7.6896,E
x1318,Basel-Landschaft-Pratteln,Switzerland,47.5015,N,7.6896,E
x843,Basilicata-Potenza-Montemilone-Strada-San-Giuseppe,Italy,41.05124,N,16.01814,E
x1455,Batumi,Georgia,41.6167547,N,41.6367455,E
x1610,Bavaria-08-km-S-Fall,Germany,47.562898,N,11.536546,E
21694,Bavaria-1-km-SSW-Jachenau,Germany,47.59725,N,11.428156,E
x1569,Bavaria-1-km-SSW-Jachenau,Germany,47.59725,N,11.428156,E
x1617,Bavaria-15-km-SSW-Nußdorf-am-Inn,Germany,47.7243,N,12.15183,E
x1618,Bavaria-15-km-SSW-Nußdorf-am-Inn,Germany,47.7243,N,12.15183,E
x1636,Bavaria-15-km-SSW-Nußdorf-am-Inn,Germany,47.7243,N,12.15183,E
x1637,Bavaria-15-km-SSW-Nußdorf-am-Inn,Germany,47.7243,N,12.15183,E
x1583,Bavaria-28-km-N-Bürgstadt,Germany,49.73789,N,9.27775,E
x1712,Bavaria-3-km-NE-Wallgau,Germany,47.53569,N,11.32967,E
x899,Bavaria-Altmühltal-NE-Biberbach,Germany,49.0609,N,11.45962,E
x1640,Bavaria-Aufseßtal,Germany,49.82761,N,11.27808,E
x1565,Bavaria-Bad-Feilnbach,Germany,47.767853,N,12.001406,E
x1588,Bavaria-Bairawies,Germany,47.83221,N,11.52844,E
x1689,Bavaria-Barmsee,Germany,47.50338,N,11.24514,E
x1645,Bavaria-Bergener-Moos,Germany,47.80517,N,12.566,E
21695,Bavaria-between-Katschenreuth-and-Frankenberg,Germany,50.082095,N,11.39617,E
x301,Bavaria-between-Katschenreuth-and-Frankenberg,Germany,50.082095,N,11.39617,E
x1590,Bavaria-between-Vorderriß-and-Wallgau,Germany,47.540113,N,11.350241,E
x1625,Bavaria-Bühl,Germany,47.571564,N,10.194264,E
x1595,Bavaria-Burgwalden,Germany,48.2752,N,10.75939,E
x1651,Bavaria-Burgwalden,Germany,48.2752,N,10.75939,E
x1628,Bavaria-Deininger-Weiher-NE-Deining,Germany,47.96034,N,11.52285,E
x1629,Bavaria-Deininger-Weiher-NE-Deining,Germany,47.96034,N,11.52285,E
x1646,Bavaria-Deininger-Weiher-NE-Deining,Germany,47.96034,N,11.52285,E
x1647,Bavaria-Deininger-Weiher-NE-Deining,Germany,47.96034,N,11.52285,E
x1718,Bavaria-Deisenhofer-Forst,Germany,47.99326,N,11.610091,E
21697,Bavaria-Dreschen,Germany,50.017943,N,11.501391,E
21698,Bavaria-E-Passau-Erlau,Germany,48.565028,N,13.58063,E
x1620,Bavaria-Ensdorf-near-Kraiburg-am-Inn,Germany,48.18995,N,12.449608,E
x1654,Bavaria-Ettal,Germany,47.569959,N,11.088826,E
x1603,Bavaria-Felmer-Moos-E-Immenstadt,Germany,47.563537,N,10.265673,E
x1638,Bavaria-Ferchensee,Germany,47.44034,N,11.21144,E
x1639,Bavaria-Ferchensee,Germany,47.44034,N,11.21144,E
x1582,Bavaria-Garmisch-Partenkirchen-Am-Kreuzeckbahnhof,Germany,47.47257,N,11.06451,E
x1612,Bavaria-Garmisch-Partenkirchen-SW-Schmölzersee,Germany,47.5087,N,11.084226,E
x1606,Bavaria-Garmisch-Partenkirchen-Vogelschutzwarte,Germany,47.48775,N,11.12673,E
x1609,Bavaria-Garmisch-Partenkirchen-Vogelschutzwarte,Germany,47.48775,N,11.12673,E
x1589,Bavaria-Gerhardshofen,Germany,49.61142,N,10.6844,E
x1656,Bavaria-Gmund-am-Tegernsee,Germany,47.743935,N,11.73626,E
x1598,Bavaria-Griesen,Germany,47.47627,N,10.94147,E
x1672,Bavaria-Griesen,Germany,47.47627,N,10.94147,E
x1673,Bavaria-Griesen,Germany,47.47627,N,10.94147,E
x1580,Bavaria-Haiming,Germany,48.20815,N,12.88888,E
x1615,Bavaria-Hallbergmoos-near-Isar-river,Germany,48.309938,N,11.738534,E
21699,Bavaria-Haunstetten,Germany,48.30866,N,10.906935,E
x1592,Bavaria-Haunstetten,Germany,48.30866,N,10.906935,E
x918,Bavaria-Heldenstein,Germany,48.237305,N,12.359845,E
x1676,Bavaria-Hofstätter-See,Germany,47.90355,N,12.17457,E
x1677,Bavaria-Hofstätter-See,Germany,47.90355,N,12.17457,E
x1690,Bavaria-Icking,Germany,47.94371,N,11.44282,E
x1691,Bavaria-Icking,Germany,47.94371,N,11.44282,E
x1692,Bavaria-Icking,Germany,47.94371,N,11.44282,E
x1698,Bavaria-Icking,Germany,47.94371,N,11.44282,E
x1701,Bavaria-Icking,Germany,47.94371,N,11.44282,E
x1644,Bavaria-Inzeller-Moos-NW-Inzell,Germany,47.77281,N,12.73647,E
x1669,Bavaria-Isar-near-Sylvensteinsee,Germany,47.56064,N,11.48914,E
x1626,Bavaria-Isar-S-Mittenwald,Germany,47.408306,N,11.256405,E
x1600,Bavaria-Ismaninger-Speichersee,Germany,48.21907,N,11.76676,E
21700,Bavaria-Jochenstein,Germany,48.518196,N,13.713627,E
21696,Bavaria-Katschenreuth-Frankenberg,Germany,50.082095,N,11.39617,E
x917,Bavaria-Kirchseemoor,Germany,47.814121,N,11.618998,E
21701,Bavaria-Klautzenbach,Germany,49.038665,N,13.224219,E
x1566,Bavaria-Kleinheubach,Germany,49.71628,N,9.20163,E
x897,Bavaria-Kleinwallstadt,Germany,49.874802,N,9.176032,E
x1713,Bavaria-Königsdorf,Germany,47.79563,N,11.46873,E
x1714,Bavaria-Königsdorf,Germany,47.79563,N,11.46873,E
x1715,Bavaria-Königsdorf,Germany,47.79563,N,11.46873,E
x1688,Bavaria-Lanzenhaar,Germany,47.99508,N,11.61746,E
x1648,Bavaria-Lechstaustufe-19-S-Schwabstadl,Germany,48.14818,N,10.86833,E
x1649,Bavaria-Lechstaustufe-19-S-Schwabstadl,Germany,48.14818,N,10.86833,E
x1650,Bavaria-Lechstaustufe-19-S-Schwabstadl,Germany,48.14818,N,10.86833,E
x1643,Bavaria-Lechstaustufe-21-near-Prittriching,Germany,48.20962,N,10.90658,E
x1558,Bavaria-Lenggries,Germany,47.671181,N,11.581959,E
x1559,Bavaria-Lenggries,Germany,47.671181,N,11.581959,E
x1560,Bavaria-Lenggries-mouth-of-Jachen,Germany,47.648629,N,11.583584,E
x901,Bavaria-Lindau,Germany,47.538972,N,9.727817,E
x902,Bavaria-Lindau,Germany,47.538972,N,9.727817,E
x903,Bavaria-Lindau,Germany,47.538972,N,9.727817,E
x904,Bavaria-Lindau,Germany,47.538972,N,9.727817,E
x907,Bavaria-Lindau,Germany,47.538972,N,9.727817,E
x908,Bavaria-Lindau,Germany,47.538972,N,9.727817,E
x1607,Bavaria-Loisach-Kochel-Moos-SW-Benediktbeuren,Germany,47.698609,N,11.388059,E
x1440,Bavaria-Mammendorf,Germany,48.212091,N,11.167545,E
x1635,Bavaria-Mittenwald-Ferchenseestrasse,Germany,47.437639,N,11.249837,E
21702,Bavaria-Munich,Germany,48.171638,N,11.493666,E
21703,Bavaria-Munich-Feldmoching,Germany,48.211119,N,11.514959,E
x302,Bavaria-Munich-Obermenzing,Germany,48.170042,N,11.493866,E
x304,Bavaria-Munich-Obermenzing,Germany,48.170042,N,11.493866,E
x305,Bavaria-Munich-Obermenzing,Germany,48.170042,N,11.493866,E
x1719,Bavaria-Munich-Allach,Germany,48.19835,N,11.46083,E
x1596,Bavaria-Munich-Feldmoching,Germany,48.211119,N,11.514959,E
x1576,Bavaria-Munich-Johanneskirchen,Germany,48.170644,N,11.664377,E
x1577,Bavaria-Munich-Johanneskirchen,Germany,48.170644,N,11.664377,E
x1624,Bavaria-Munich-Moosach-Rangierbahnhof,Germany,48.190168,N,11.527761,E
x1572,Bavaria-Munich-Nymphenburg,Germany,48.158978,N,11.500008,E
x1575,Bavaria-Munich-Nymphenburg,Germany,48.158978,N,11.500008,E
x1593,Bavaria-Munich-Nymphenburg,Germany,48.158978,N,11.500008,E
x1597,Bavaria-Munich-Nymphenburg,Germany,48.158978,N,11.500008,E
x1599,Bavaria-Munich-Nymphenburg,Germany,48.158978,N,11.500008,E
x925,Bavaria-Munich-Nymphenburg,Germany,48.158978,N,11.500008,E
x926,Bavaria-Munich-Nymphenburg,Germany,48.158978,N,11.500008,E
21704,Bavaria-Munich-Obermenzing,Germany,48.169451,N,11.471468,E
21705,Bavaria-Munich-Obermenzing,Germany,48.169451,N,11.471468,E
x1574,Bavaria-Munich-Obermenzing,Germany,48.169451,N,11.471468,E
x1578,Bavaria-Munich-Obermenzing,Germany,48.169451,N,11.471468,E
x1579,Bavaria-Munich-Obermenzing,Germany,48.169451,N,11.471468,E
x1720,Bavaria-Munich-Obermenzing,Germany,48.169451,N,11.471468,E
x303,Bavaria-Munich-Obermenzing,Germany,48.169451,N,11.471468,E
21706,Bavaria-Murnauer-Moos,Germany,47.644805,N,11.156216,E
x1561,Bavaria-Murnauer-Moos,Germany,47.644805,N,11.156216,E
x1605,Bavaria-Murnauer-Moos-Schwaigen,Germany,47.64956,N,11.11912,E
21961,Bavaria-near-Bad-Aibling,Germany,47.827793,N,12.02364,E
x924,Bavaria-near-Burgbernheim-west-of-Hirschteich,Germany,49.427503,N,10.304446,E
21707,Bavaria-near-Haiming,Germany,48.211748,N,12.887135,E
x909,Bavaria-near-Höslwang,Germany,47.941173,N,12.31559,E
21708,Bavaria-near-Neuenreuth,Germany,49.884183,N,11.604295,E
x1608,Bavaria-Neuhaus,Germany,48.13059,N,12.78306,E
x1663,Bavaria-Neunhof,Germany,49.531,N,11.0723,E
x1664,Bavaria-Neunhof,Germany,49.531,N,11.0723,E
x1665,Bavaria-Neunhof,Germany,49.531,N,11.0723,E
x1666,Bavaria-Neunhof,Germany,49.531,N,11.0723,E
x1667,Bavaria-Neunhof,Germany,49.531,N,11.0723,E
x920,Bavaria-Neustadt-ad-Aisch,Germany,49.65526,N,10.375187,E
x921,Bavaria-Neustadt-ad-Aisch,Germany,49.65526,N,10.375187,E
x1586,Bavaria-Niederneuching-Mittlere-Isar-Kanal,Germany,48.23973,N,11.84716,E
x1601,Bavaria-Niederneuching-Mittlere-Isar-Kanal,Germany,48.23973,N,11.84716,E
x1616,Bavaria-Niederneuching-Mittlere-Isar-Kanal,Germany,48.23973,N,11.84716,E
x900,Bavaria-Nuremberg-Rüblander-Ufer,Germany,49.4702,N,11.1816,E
x1696,Bavaria-Oberau,Germany,47.55997,N,11.15913,E
x1563,Bavaria-Oberhaching-Deisenhofen,Germany,48.00708,N,11.59508,E
x1571,Bavaria-Oberneuching,Germany,48.23999,N,11.85528,E
21709,Bavaria-Olching,Germany,48.231697,N,11.360266,E
21710,Bavaria-Passau,Germany,48.553774,N,13.434019,E
x1404,Bavaria-Passau,Germany,48.553774,N,13.434019,E
x1584,Bavaria-Penzberg,Germany,47.76652,N,11.38906,E
x1716,Bavaria-Penzberg,Germany,47.76652,N,11.38906,E
x915,Bavaria-Perach,Germany,48.265462,N,12.767689,E
x916,Bavaria-Perach,Germany,48.265462,N,12.767689,E
x1674,Bavaria-Prien-Ernsdorf,Germany,47.85044,N,12.3551,E
x1556,Bavaria-Pullach,Germany,48.05743,N,11.54307,E
x1557,Bavaria-Pullach,Germany,48.05743,N,11.54307,E
x1697,Bavaria-Pullach,Germany,48.05743,N,11.54307,E
x1594,Bavaria-Pupplinger-Au-N-Wolfratshausen,Germany,47.946325,N,11.4435,E
x1679,Bavaria-Pupplinger-Au-N-Wolfratshausen,Germany,47.946325,N,11.4435,E
x1680,Bavaria-Pupplinger-Au-N-Wolfratshausen,Germany,47.946325,N,11.4435,E
x1562,Bavaria-Purfing,Germany,48.13183,N,11.82334,E
x1614,Bavaria-Ratzinger-Höhe-between-Simssee-and-Chiemsee,Germany,47.873388,N,12.302149,E
x1675,Bavaria-Raubling-Wasserwiesen,Germany,47.821997,N,12.051044,E
x1581,Bavaria-Riedboden-S-Mittenwald,Germany,47.41046,N,11.25472,E
x1585,Bavaria-Riedering,Germany,47.838086,N,12.202048,E
x1564,Bavaria-Rosenheim,Germany,47.8638889,N,12.08716667,E
x1602,Bavaria-Rottach-Egern-mouth-of-Weißach,Germany,47.69205,N,11.73871,E
x1555,Bavaria-Sachrang,Germany,47.680524,N,12.256663,E
x1613,Bavaria-Sachrang,Germany,47.680524,N,12.256663,E
x1622,Bavaria-Sachrang,Germany,47.680524,N,12.256663,E
x1623,Bavaria-Sachrang,Germany,47.680524,N,12.256663,E
x1668,Bavaria-Sachrang,Germany,47.680524,N,12.256663,E
x1678,Bavaria-Sachrang,Germany,47.680524,N,12.256663,E
x1687,Bavaria-Sachrang,Germany,47.680524,N,12.256663,E
x922,Bavaria-Scheinfeld,Germany,49.671085,N,10.470707,E
x923,Bavaria-Scheinfeld,Germany,49.671085,N,10.470707,E
21711,Bavaria-Schliersee,Germany,47.729625,N,11.873338,E
x1573,Bavaria-Schliersee,Germany,47.729625,N,11.873338,E
x1604,Bavaria-Schmalensee-N-Mittenwald,Germany,47.46626,N,11.26214,E
x1681,Bavaria-Schmölzersee-east-shore-S-Pflegersee,Germany,47.509695,N,11.087281,E
x1682,Bavaria-Schmölzersee-east-shore-S-Pflegersee,Germany,47.509695,N,11.087281,E
x1683,Bavaria-Schmölzersee-east-shore-S-Pflegersee,Germany,47.509695,N,11.087281,E
x1684,Bavaria-Schmölzersee-east-shore-S-Pflegersee,Germany,47.509695,N,11.087281,E
21712,Bavaria-Schwandorf,Germany,49.3711306953352,N,12.1733370124028,E
x912,Bavaria-Schwindegg,Germany,48.271409,N,12.258899,E
x1621,Bavaria-Söchtenau,Germany,47.931531,N,12.229967,E
x913,Bavaria-Soyen,Germany,48.1157,N,12.2507,E
x1657,Bavaria-Steinbach,Germany,50.0155,N,9.6232,E
x1658,Bavaria-Steinbach,Germany,50.0155,N,9.6232,E
x1659,Bavaria-Steinbach,Germany,50.0155,N,9.6232,E
x1660,Bavaria-Steinbach,Germany,50.0155,N,9.6232,E
x1661,Bavaria-Steinbach,Germany,50.0155,N,9.6232,E
x1662,Bavaria-Steinbach,Germany,50.0155,N,9.6232,E
x1702,Bavaria-Sterntal-Filze,Germany,47.78981,N,12.04098,E
x1587,Bavaria-Tegernseer-Berge,Germany,47.717994,N,11.649614,E
x910,Bavaria-Übersee,Germany,47.839929,N,12.480388,E
21713,Bavaria-Wackersdorf,Germany,49.315275,N,12.179604,E
x1685,Bavaria-Wagenbrüchsee,Germany,47.49257,N,11.216977,E
x1686,Bavaria-Wagenbrüchsee,Germany,47.49257,N,11.216977,E
x1631,Bavaria-Walchensee-east-shore,Germany,47.590654,N,11.402178,E
x1632,Bavaria-Walchensee-east-shore,Germany,47.590654,N,11.402178,E
x1633,Bavaria-Walchensee-east-shore,Germany,47.590654,N,11.402178,E
x1634,Bavaria-Walchensee-east-shore,Germany,47.590654,N,11.402178,E
x1693,Bavaria-Walchensee-east-shore,Germany,47.590654,N,11.402178,E
x1694,Bavaria-Walchensee-east-shore,Germany,47.590654,N,11.402178,E
x1695,Bavaria-Walchensee-east-shore,Germany,47.590654,N,11.402178,E
x1699,Bavaria-Walchensee-east-shore,Germany,47.590654,N,11.402178,E
x1700,Bavaria-Walchensee-east-shore,Germany,47.590654,N,11.402178,E
x1671,Bavaria-Walchensee-east-shore-W-Niedernach,Germany,47.59008,N,11.37904,E
x1709,Bavaria-Walchensee-east-shore-W-Niedernach,Germany,47.59008,N,11.37904,E
x1710,Bavaria-Walchensee-east-shore-W-Niedernach,Germany,47.59008,N,11.37904,E
x1711,Bavaria-Walchensee-east-shore-W-Niedernach,Germany,47.59008,N,11.37904,E
x1717,Bavaria-Walchensee-east-shore-W-Niedernach,Germany,47.59008,N,11.37904,E
x919,Bavaria-Waldkraiburg,Germany,48.2032,N,12.42776,E
x1627,Bavaria-Waldweiher-near-Dietramszell,Germany,47.845321,N,11.605916,E
x1619,Bavaria-Wamberg,Germany,47.481514,N,11.134645,E
x911,Bavaria-Weidenbach,Germany,48.253302,N,12.346608,E
x1655,Bavaria-Weißach-near-Wildbad-Kreuth,Germany,47.62138,N,11.728534,E
x914,Bavaria-Winkl,Germany,47.831828,N,12.524492,E
x1641,Bavaria-Winzer-Letten,Germany,48.72073,N,13.07633,E
21714,Bavaria-Wolfratshausen,Germany,47.936817,N,11.439857,E
x1642,Bavaria-Worzeldorf,Germany,49.37616,N,11.10569,E
x1630,Bavaria-Zeller-See-2-km-NE-Schleching,Germany,47.73448,N,12.41336,E
21996,Belluno,Italy,46.349947,N,12.337599,E
x740,Belo-Polje,Serbia,44.6427784,N,20.1979722,E
x741,Belo-Polje,Serbia,44.6427784,N,20.1979722,E
x1497,Benkovac,Croatia,44.0334458,N,15.6111002,E
21715,Berlin-Teufelssee,Germany,52.491979,N,13.235686,E
21716,Berlin-Teufelssee,Germany,52.491979,N,13.235686,E
x26,Bern-Bern-Airport,Switzerland,46.918189,N,7.4999,E
x1026,Bern-Bern-Airport,Switzerland,46.918189,N,7.4999,E
x1027,Bern-Bern-Airport,Switzerland,46.918189,N,7.4999,E
x1028,Bern-Bern-Airport,Switzerland,46.918189,N,7.4999,E
x1029,Bern-Bern-Airport,Switzerland,46.918189,N,7.4999,E
x1030,Bern-Bern-Airport,Switzerland,46.918189,N,7.4999,E
x1031,Bern-Bern-Airport,Switzerland,46.918189,N,7.4999,E
x1113,Bern-Bern-Airport,Switzerland,46.918189,N,7.4999,E
x193,Bern-Bern-Airport,Switzerland,46.918189,N,7.4999,E
x23,Bern-Bern-Airport,Switzerland,46.918189,N,7.4999,E
x24,Bern-Bern-Airport,Switzerland,46.918189,N,7.4999,E
x25,Bern-Bern-Airport,Switzerland,46.918189,N,7.4999,E
x27,Bern-Bern-Airport,Switzerland,46.918189,N,7.4999,E
x28,Bern-Bern-Airport,Switzerland,46.918189,N,7.4999,E
x1114,Bern-Mühleberg,Switzerland,46.965053,N,7.2517,E
x194,Bern-Mühleberg,Switzerland,46.965053,N,7.2517,E
21827,Bern-near-Bern,Switzerland,46.9133,N,7.5053,E
21828,Bern-near-Meiringen-Gadmental,Switzerland,46.716667,N,8.316667,E
21829,Bern-near-Meiringen-Gadmental,Switzerland,46.716667,N,8.316667,E
x1112,Bern-Sutz-Lattrigen,Switzerland,47.1011,N,7.2114,E
x192,Bern-Sutz-Lattrigen,Switzerland,47.1011,N,7.2114,E
22026,Běstvina,Czech Republic,49.833514,N,15.583708,E
21662,between-Horušice-and-Ruda,Czech Republic,49.15,N,14.7,E
21663,between-Horušice-and-Ruda,Czech Republic,49.15,N,14.7,E
21830,between-Neuchâtel-Bern-and-Biel-Grosses-Moos,Switzerland,46.9833,N,7.1333,E
21831,between-Neuchâtel-Bern-and-Biel-Grosses-Moos,Switzerland,46.9833,N,7.1333,E
x291,between-Pismenovo-and-Primorsko,Bulgaria,42.2173192,N,27.6736346,E
x292,between-Pismenovo-and-Primorsko,Bulgaria,42.2173192,N,27.6736346,E
x1480,between-Sarród-and-Fertóujlak,Hungary,47.6929189,N,16.844764,E
x947,between-Topola-and-Runina,Slovakia,49.0719895,N,22.4012507,E
x942,Bezhanovo,Bulgaria,43.2288352,N,24.3887615,E
21795,Bilje-Vipava-river,Slovenia,45.889456,N,13.636068,E
x785,Bjelasica,Montenegro,42.8534421,N,19.7079706,E
x1270,Black-Sea-Region-10-km-E-Gerede,Turkey,40.800325,N,32.193323,E
x1437,Black-Sea-Region-between-Hopa-and-Arhavi,Turkey,41.353055,N,41.308995,E
x1438,Black-Sea-Region-between-Hopa-and-Arhavi,Turkey,41.353055,N,41.308995,E
x1439,Black-Sea-Region-Borçka,Turkey,41.3637,N,41.6791,E
x1529,Blekinge-Augerum,Sweden,56.2168734,N,15.6769034,E
x254,Boboshticë,Albania,40.5520843,N,20.7643967,E
22124,Bodíky,Slovakia,47.90538,N,17.48537,E
22125,Bodíky,Slovakia,47.90538,N,17.48537,E
x563,Bodíky,Slovakia,47.90538,N,17.48537,E
x564,Bodíky,Slovakia,47.90538,N,17.48537,E
x548,Bodrogkisfalud,Hungary,48.1789303,N,21.3617788,E
21797,Borjana,Slovenia,46.25592,N,13.47999,E
21798,Borovnica,Slovenia,45.919154,N,14.364252,E
21799,Borovnica,Slovenia,45.919154,N,14.364252,E
x1448,Borshomi,Georgia,41.8399528,N,43.3907569,E
x1449,Borshomi,Georgia,41.8399528,N,43.3907569,E
x628,Boschoord,Netherlands,52.8989082,N,6.2292587,E
x629,Boschoord,Netherlands,52.8989082,N,6.2292587,E
x630,Boschoord,Netherlands,52.8989082,N,6.2292587,E
x290,Bosna-pass,Bulgaria,42.733883,N,25.48583,E
x62,Bouches-du-Rhône-between-Fos-sur-Mer-and-Port-Saint-Louis-du-Rhône,France,43.4247,N,4.882669,E
x99,Bouches-du-Rhône-between-Fos-sur-Mer-and-Port-Saint-Louis-du-Rhône,France,43.4247,N,4.882669,E
x1402,Bouches-du-Rhône-Camargue,France,43.5147,N,4.5412,E
x50,Bouches-du-Rhône-Camargue-Arles,France,43.51992,N,4.656654,E
x52,Bouches-du-Rhône-Camargue-Clos-de-Lange,France,43.573124,N,4.562843,E
x87,Bouches-du-Rhône-Camargue-Clos-de-Lange,France,43.573124,N,4.562843,E
x83,Bouches-du-Rhône-Camargue-Marais-du-Grenouillet,France,43.5199,N,4.6567,E
x1522,Bouches-du-Rhône-Camargue-Salin-de-Badon,France,43.4804,N,4.646308,E
x1523,Bouches-du-Rhône-Camargue-Salin-de-Badon,France,43.4804,N,4.646308,E
x1550,Bouches-du-Rhône-Camargue-Salin-de-Badon,France,43.4804,N,4.646308,E
x1551,Bouches-du-Rhône-Camargue-Salin-de-Badon,France,43.4804,N,4.646308,E
x1515,Bouches-du-Rhône-Camargue-Tour-du-Valat,France,43.501,N,4.6726,E
x1516,Bouches-du-Rhône-Camargue-Tour-du-Valat,France,43.501,N,4.6726,E
x1517,Bouches-du-Rhône-Camargue-Tour-du-Valat,France,43.501,N,4.6726,E
x1519,Bouches-du-Rhône-Camargue-Tour-du-Valat,France,43.501,N,4.6726,E
x1521,Bouches-du-Rhône-Camargue-Tour-du-Valat,France,43.501,N,4.6726,E
x1546,Bouches-du-Rhône-Camargue-Tour-du-Valat,France,43.501,N,4.6726,E
x1547,Bouches-du-Rhône-Camargue-Tour-du-Valat,France,43.501,N,4.6726,E
x1548,Bouches-du-Rhône-Camargue-Tour-du-Valat,France,43.501,N,4.6726,E
x1549,Bouches-du-Rhône-Camargue-Tour-du-Valat,France,43.501,N,4.6726,E
x1400,Bouches-du-Rhône-Saint-Martin-de-Crau,France,43.6391,N,4.810925,E
x101,Bouches-du-Rhône-Saint-Martin-de-Crau-Mas-de-Pernes,France,43.7567,N,4.6666,E
x64,Bouches-du-Rhône-Saint-Martin-de-Crau-Mas-de-Pernes,France,43.7567,N,4.6666,E
22055,Brandenburg-Brieske,Germany,51.502492,N,13.969445,E
22056,Brandenburg-Cumlosen,Germany,53.032646,N,11.659899,E
22057,Brandenburg-Forst,Germany,51.76039,N,14.608272,E
21717,Brandenburg-Golm,Germany,52.405973,N,12.950323,E
21718,Brandenburg-Golm,Germany,52.405973,N,12.950323,E
x712,Brandenburg-Golm,Germany,52.405973,N,12.950323,E
x713,Brandenburg-Golm,Germany,52.405973,N,12.950323,E
x714,Brandenburg-Golm,Germany,52.405973,N,12.950323,E
x715,Brandenburg-Golm,Germany,52.405973,N,12.950323,E
x716,Brandenburg-Golm,Germany,52.405973,N,12.950323,E
x717,Brandenburg-Golm,Germany,52.405973,N,12.950323,E
x718,Brandenburg-Golm,Germany,52.405973,N,12.950323,E
x719,Brandenburg-Golm,Germany,52.405973,N,12.950323,E
x720,Brandenburg-Golm,Germany,52.405973,N,12.950323,E
x721,Brandenburg-Golm,Germany,52.405973,N,12.950323,E
x722,Brandenburg-Golm,Germany,52.405973,N,12.950323,E
x723,Brandenburg-Golm,Germany,52.405973,N,12.950323,E
x724,Brandenburg-Golm,Germany,52.405973,N,12.950323,E
x725,Brandenburg-Golm,Germany,52.405973,N,12.950323,E
x726,Brandenburg-Golm,Germany,52.405973,N,12.950323,E
x727,Brandenburg-Golm,Germany,52.405973,N,12.950323,E
x728,Brandenburg-Golm,Germany,52.405973,N,12.950323,E
x729,Brandenburg-Golm,Germany,52.405973,N,12.950323,E
x730,Brandenburg-Golm,Germany,52.405973,N,12.950323,E
x731,Brandenburg-Golm,Germany,52.405973,N,12.950323,E
x732,Brandenburg-Golm,Germany,52.405973,N,12.950323,E
x733,Brandenburg-Golm,Germany,52.405973,N,12.950323,E
x734,Brandenburg-Golm,Germany,52.405973,N,12.950323,E
22058,Brandenburg-Gülpe,Germany,52.725281,N,12.224875,E
22059,Brandenburg-Guteborn,Germany,51.424153,N,13.924799,E
22060,Brandenburg-Guteborn,Germany,51.424153,N,13.924799,E
22168,Brandenburg-Guteborn,Germany,51.424153,N,13.924799,E
22061,Brandenburg-Hosena,Germany,51.456788,N,14.028454,E
x220,Brandenburg-Hosena,Germany,51.456788,N,14.028454,E
x1509,Brandenburg-near-Bamme,Germany,52.5823599,N,12.4328474,E
22062,Brandenburg-Schwedt-Oder,Germany,53.117439,N,14.3422,E
x1454,Brandenburg-Senftenberg,Germany,51.5204143,N,14.0049711,E
22063,Brandenburg-Werder,Germany,52.379166,N,12.916157,E
x286,Brashlyan,Bulgaria,42.0463736,N,27.4281008,E
x287,Brashlyan,Bulgaria,42.0463736,N,27.4281008,E
22130,Bratislava-Devínská-Kobyla,Slovakia,48.18762,N,16.992483,E
22126,Bratislava-Dúbravka,Slovakia,48.17701,N,17.05127,E
22127,Bratislava-Dúbravka,Slovakia,48.17701,N,17.05127,E
22128,Bratislava-Karlova-Ves,Slovakia,48.16147,N,17.05473,E
22129,Bratislava-Karlova-Ves,Slovakia,48.16147,N,17.05473,E
21791,Bratislava-Petržalka,Slovakia,48.09927,N,17.13166,E
21792,Bratislava-Petržalka,Slovakia,48.09927,N,17.13166,E
x778,Bratislava-Petržalka,Slovakia,48.09927,N,17.13166,E
x779,Bratislava-Petržalka,Slovakia,48.09927,N,17.13166,E
22131,Bratislava-Železná-Studnička,Slovakia,48.18222,N,17.08669,E
x549,Bratislava-Železná-Studnička,Slovakia,48.18222,N,17.08669,E
x550,Bratislava-Železná-Studnička,Slovakia,48.18222,N,17.08669,E
x551,Bratislava-Železná-Studnička,Slovakia,48.18222,N,17.08669,E
x566,Bratislava-Železná-Studnička,Slovakia,48.18222,N,17.08669,E
22132,Bratislava-Železná-Studnička-2,Slovakia,48.18222,N,17.08129,E
x788,Brecklands-area-of-Norfolk-near-Thetford,Great Britain,52.412856,N,0.751657,E
x789,Brecklands-area-of-Norfolk-near-Thetford,Great Britain,52.412856,N,0.751657,E
x790,Brecklands-area-of-Norfolk-near-Thetford,Great Britain,52.412856,N,0.751657,E
x791,Brecklands-area-of-Norfolk-near-Thetford,Great Britain,52.412856,N,0.751657,E
x792,Brecklands-area-of-Norfolk-near-Thetford,Great Britain,52.412856,N,0.751657,E
x1489,Bryansk,Russia,53.2635306,N,34.41611,E
x1490,Bryansk,Russia,53.2635306,N,34.41611,E
x667,Buckingshamshire-Chesham,Great Britain,51.709401,N,-0.612333,W
x953,Bujakovo,Slovakia,48.8205,N,19.68383,E
x1423,Burgenland-Andau,Austria,47.7779653,N,17.0334024,E
x1433,Burgenland-Apetlon,Austria,47.7458991,N,16.8305366,E
x1403,Burgenland-Breitenbrunn,Austria,47.9463305,N,16.7327135,E
x1278,Burgenland-Eisenstadt,Austria,47.85,N,16.53,E
x1393,Burgenland-Hölle,Austria,47.82128,N,16.79364,E
x1450,Burgenland-Illmitz,Austria,47.7621484,N,16.8001088,E
x1469,Burgenland-Illmitz,Austria,47.7621484,N,16.8001088,E
x1427,Burgenland-Jois,Austria,47.9636966,N,16.7931956,E
x1274,Burgenland-Lake-Neusiedl,Austria,47.8650427,N,16.7775594,E
22017,Burgenland-Lake-Neusiedl-Illmitz,Austria,47.761715,N,16.799784,E
22018,Burgenland-Lake-Neusiedl-Illmitz,Austria,47.761715,N,16.799784,E
x1275,Burgenland-Lake-Neusiedl-Illmitz,Austria,47.761715,N,16.799784,E
x449,Burgenland-Lake-Neusiedl-Illmitz,Austria,47.761715,N,16.799784,E
22019,Burgenland-Lake-Neusiedl-Jois,Austria,47.939979,N,16.79585,E
22020,Burgenland-Lake-Neusiedl-Jois,Austria,47.939979,N,16.79585,E
x445,Burgenland-Lake-Neusiedl-Jois,Austria,47.939979,N,16.79585,E
x446,Burgenland-Lake-Neusiedl-Jois,Austria,47.939979,N,16.79585,E
x447,Burgenland-Lake-Neusiedl-Jois,Austria,47.939979,N,16.79585,E
x448,Burgenland-Lake-Neusiedl-Jois,Austria,47.939979,N,16.79585,E
x450,Burgenland-Lake-Neusiedl-Jois,Austria,47.939979,N,16.79585,E
x459,Burgenland-Lake-Neusiedl-Jois,Austria,47.939979,N,16.79585,E
x460,Burgenland-Lake-Neusiedl-Jois,Austria,47.939979,N,16.79585,E
x461,Burgenland-Lake-Neusiedl-Jois,Austria,47.939979,N,16.79585,E
x462,Burgenland-Lake-Neusiedl-Jois,Austria,47.939979,N,16.79585,E
x463,Burgenland-Lake-Neusiedl-Jois,Austria,47.939979,N,16.79585,E
x464,Burgenland-Lake-Neusiedl-Jois,Austria,47.939979,N,16.79585,E
x465,Burgenland-Lake-Neusiedl-Jois,Austria,47.939979,N,16.79585,E
x466,Burgenland-Lake-Neusiedl-Jois,Austria,47.939979,N,16.79585,E
x467,Burgenland-Lake-Neusiedl-Jois,Austria,47.939979,N,16.79585,E
x1392,Burgenland-Weiden-am-See,Austria,47.9252478,N,16.8678279,E
x1494,Burgenland-Zitzmannsdorfer-Wiesen,Austria,47.8919444,N,16.8697222,E
x603,Cajupit-pass,Albania,41.153332,N,20.168331,E
x604,Cajupit-pass,Albania,41.153332,N,20.168331,E
x1488,Calabria,Italy,39.241381,N,16.605621,E
x887,Calabria,Italy,39.241381,N,16.605621,E
x888,Calabria,Italy,39.241381,N,16.605621,E
x889,Calabria,Italy,39.241381,N,16.605621,E
x893,Calabria-San-Giovanni-in-Fiora,Italy,39.260895,N,16.695693,E
x1195,Campania-Caserta-San-Gregorio-Matese,Italy,41.383824,N,14.418093,E
x894,Campania-Caserta-San-Gregorio-Matese,Italy,41.383824,N,14.418093,E
x895,Campania-Caserta-San-Gregorio-Matese,Italy,41.383824,N,14.418093,E
x896,Campania-Salerno-Amalfi,Italy,40.63291,N,14.591539,E
21800,Celje-Voglajna-river,Slovenia,46.231628,N,15.274551,E
21664,Čepice,Czech Republic,49.27306,N,13.59472,E
21801,Cerknica-Lake,Slovenia,45.77212,N,14.357321,E
21802,Cerknica-Lake,Slovenia,45.77212,N,14.357321,E
x349,Cerknica-Lake,Slovenia,45.77212,N,14.357321,E
x350,Cerknica-Lake,Slovenia,45.77212,N,14.357321,E
x936,Cerna-Sat,Romania,45.1273648,N,22.6829327,E
x939,Červený-Kláštor,Slovakia,49.3917746,N,20.4053151,E
22027,České-Budějovice,Czech Republic,49,N,14.43,E
x1418,Chalkidiki-N-Stratoni,Greece,40.5141742,N,23.8254879,E
x1434,Chalkidiki-N-Stratoni,Greece,40.5141742,N,23.8254879,E
x605,Cherusti,Russia,55.5498608,N,40.0090054,E
x976,Chilia-Veche,Romania,45.4188767,N,29.2938362,E
22133,Chotínske-Piesky,Slovakia,47.8131,N,18.21938,E
22028,Chřiby-Mountains-Halenkovice,Czech Republic,49.193441,N,17.440035,E
22029,Chřiby-Mountains-Jankovice,Czech Republic,49.167781,N,17.373805,E
22030,Chřiby-Mountains-Jankovice,Czech Republic,49.167781,N,17.373805,E
22031,Chřiby-Mountains-Kudlovice,Czech Republic,49.165861,N,17.433347,E
22032,Chřiby-Mountains-Kudlovická-dolina,Czech Republic,49.18,N,17.41,E
22033,Chřiby-Mountains-Salaš,Czech Republic,49.148891,N,17.331805,E
x1462,Constanţa-Histria,Romania,44.5704385,N,28.7122399,E
x55,Corsica-between-Bonifacio-and-Porto-Vecchio,France,41.478747,N,9.238014,E
x977,Corsica-Etang-de-Loto,France,42.718878,N,9.229499,E
x54,Corsica-Fango-valley,France,42.420196,N,8.665662,E
x238,Corsica-Gulf-of-Sagone,France,42.110417,N,8.700607,E
x40,Corsica-near-Solenzara,France,41.857056,N,9.368389,E
x243,Crimea-Luchyste,Ukraine,44.736847,N,34.4015457,E
x382,Crivina,Romania,44.7863885,N,26.0529946,E
x578,Crkvino,North Macedonia,41.6572568,N,21.7950027,E
x74,Cuenca-Abia-de-la-Obispalía,Spain,40.0367,N,-2.3953,W
22134,Čunovo,Slovakia,48.03244,N,17.20639,E
x1473,Cyclades-Milos,Greece,36.6914464,N,24.3935655,E
x228,Cyclades-Milos,Greece,36.6914464,N,24.3935655,E
x938,Dadia,Greece,41.1280108,N,26.2259523,E
x438,Dagestan-Machachkala,Russia,42.9777885,N,47.5146913,E
x439,Dagestan-Machachkala,Russia,42.9777885,N,47.5146913,E
x1428,Dagestan-Machachkala,Russia,42.9777885,N,47.5146913,E
x1417,Dagestan-Tatayurt,Russia,43.5617763,N,46.9977276,E
x1653,Děčín,Czech Republic,50.785707,N,14.2223,E
x679,Denbighshire-Eryrys,Great Britain,53.1116279,N,-3.189991,W
21668,Deux-Sevres-near-Niort,France,46.3222833333333,N,-0.464582,W
22135,Devín,Slovakia,48.17,N,16.98,E
22153,Devín,Slovakia,48.18,N,16.98,E
22136,Devínské-Jazero,Slovakia,48.23952,N,16.95302,E
22137,Devínské-Jazero,Slovakia,48.23952,N,16.95302,E
x742,Dići,Serbia,44.1984219,N,20.2828645,E
x787,Divjakë-Karavastë-National-Park,Albania,40.996725,N,19.5270566,E
x579,Dojran-Lake-Mrdaja,North Macedonia,41.1712113,N,22.744262,E
x580,Dojran-Lake-Mrdaja,North Macedonia,41.1712113,N,22.744262,E
x581,Dojran-Lake-Mrdaja,North Macedonia,41.1712113,N,22.744262,E
x582,Dojran-Lake-Mrdaja,North Macedonia,41.1712113,N,22.744262,E
x587,Dolna-Matka,North Macedonia,41.9665693,N,21.3016428,E
x937,Dolní-Lištná,Czech Republic,49.6867944,N,18.6764632,E
x253,Dolní-Marklovice;,Czech Republic,49.8919953,N,18.569053,E
x588,Donji-Dušnik,Serbia,43.1630242,N,22.1069769,E
21858,Dordogne-Savignac-les-Eglises,France,45.458853,N,1.087028,E
x697,Dorset,Great Britain,50.7487635,N,-2.3444786,W
x698,Dorset,Great Britain,50.7487635,N,-2.3444786,W
x668,Dorset-Christchurch,Great Britain,50.735777,N,-1.778586,W
21803,Dragonje,Slovenia,45.44815,N,13.67649,E
22034,Dražovice,Czech Republic,49.22351,N,13.6003903,E
22138,Dunajská-Lužná,Slovakia,48.072,N,17.224,E
22139,Dunajská-Lužná,Slovakia,48.072,N,17.224,E
21776,Durgerdam-VE,Netherlands,52.387539,N,5.022306,E
x617,Durgerdam-VE,Netherlands,52.387539,N,5.022306,E
21775,Durgerdam-VE,Netherlands,52.387539,N,5.022306,E
x372,Eastern-Finland-Savonlinna-Hernemäki,Finland,61.878003,N,28.8557539,E
21940,Emilia-Romagna-Piacenza-Caorso,Italy,45.051052,N,9.875917,E
22004,Emilia-Romagna-Piacenza-Vallerenzo-Pecorara,Italy,44.891161,N,9.372501,E
x658,Essex-Loughton,Great Britain,51.655942,N,0.068161,E
x659,Essex-Loughton,Great Britain,51.655942,N,0.068161,E
x660,Essex-Loughton,Great Britain,51.655942,N,0.068161,E
x661,Essex-Loughton,Great Britain,51.655942,N,0.068161,E
x662,Essex-Loughton,Great Britain,51.655942,N,0.068161,E
x663,Essex-Loughton,Great Britain,51.655942,N,0.068161,E
x943,Etropole,Bulgaria,42.8346414,N,23.9986631,E
x744,Ferizaj,Kosovo,42.3701844,N,21.1483281,E
x745,Ferizaj,Kosovo,42.3701844,N,21.1483281,E
x380,Fitore,Albania,40.5525136,N,20.9528989,E
x494,Flevoland-Kuinderbos,Netherlands,52.7912506,N,5.7849602,E
x495,Flevoland-Kuinderbos,Netherlands,52.7912506,N,5.7849602,E
22035,Fojtka,Czech Republic,50.821608,N,15.069723,E
x200,Friuli-Venezia-Giulia-Gorizia-Dolegna-del-Collio,Italy,46.003624,N,13.466196,E
x201,Friuli-Venezia-Giulia-Udine-Buja,Italy,46.215164,N,13.113595,E
x198,Friuli-Venezia-Giulia-Udine-Faedis,Italy,46.149555,N,13.345848,E
x196,Friuli-Venezia-Giulia-Udine-Fagagna,Italy,46.111702,N,13.08796,E
x197,Friuli-Venezia-Giulia-Udine-Majano,Italy,46.17821,N,13.090022,E
x199,Friuli-Venezia-Giulia-Udine-San-Daniele-del-Friuli,Italy,46.129921,N,12.970615,E
x970,Funen-NNW-Svendborg,Denmark,55.067434,N,10.607282,E
x971,Funen-NNW-Svendborg,Denmark,55.067434,N,10.607282,E
x972,Funen-NNW-Svendborg,Denmark,55.067434,N,10.607282,E
x973,Funen-NNW-Svendborg,Denmark,55.067434,N,10.607282,E
x42,Gard-Alzon,France,43.967121,N,3.440666,E
x70,Gard-Alzon,France,43.967121,N,3.440666,E
x100,Gard-Saint-Hippolyte-du-Fort,France,43.966257,N,3.8574,E
x63,Gard-Saint-Hippolyte-du-Fort,France,43.966257,N,3.8574,E
22140,Gbelce-Parížské-močiare,Slovakia,47.8582,N,18.50952,E
x941,Geoagiu-de-Sus,Romania,46.2529017,N,23.5917174,E
21915,Gipuzkoa-N-Irún,Spain,43.34876,N,-1.815981,W
21930,Girona-Banyoles,Spain,42.130541855,N,2.7615,E
x1487,Girona-Blanes,Spain,41.678,N,2.7912,E
21859,Gironde-Le-Haillan,France,44.8934,N,-0.678418,W
x81,Gironde-Marcheprime-Reganeau,France,44.6893,N,-0.8619,W
x112,Gironde-Minoy-Léognan,France,44.7259295,N,-0.610945,W
x80,Gironde-Mios-Les-Quatre-Routes,France,44.6742,N,-0.84,W
x111,Gironde-near-Léognan-Minoy,France,44.7259295,N,-0.610945,W
x747,Gjonaj,Kosovo,42.2536728,N,20.6243414,E
x672,Gloucestershire-Milkwall,Great Britain,51.781144,N,-2.600675,W
x84,Gotland-near-Burgsvik,Sweden,57.03181,N,18.28152,E
x592,Grabovë,Albania,40.7937943,N,20.4090789,E
x127,Graubünden-Chur,Switzerland,46.8719,N,9.5266,E
x1049,Graubünden-Chur,Switzerland,46.8719,N,9.5266,E
x1043,Graubünden-Filisur,Switzerland,46.6728,N,9.6828,E
x121,Graubünden-Filisur,Switzerland,46.6728,N,9.6828,E
x1069,Graubünden-Fläsch,Switzerland,47.0368,N,9.4879,E
x1070,Graubünden-Fläsch,Switzerland,47.0368,N,9.4879,E
x1071,Graubünden-Fläsch,Switzerland,47.0368,N,9.4879,E
x145,Graubünden-Fläsch,Switzerland,47.0368,N,9.4879,E
x146,Graubünden-Fläsch,Switzerland,47.0368,N,9.4879,E
x147,Graubünden-Fläsch,Switzerland,47.0368,N,9.4879,E
x1107,Graubünden-Laax,Switzerland,46.8069,N,9.256377245,E
x1108,Graubünden-Laax,Switzerland,46.8069,N,9.256377245,E
x181,Graubünden-Laax,Switzerland,46.8069,N,9.256377245,E
x182,Graubünden-Laax,Switzerland,46.8069,N,9.256377245,E
x1413,Györ,Hungary,47.6874569,N,17.6503974,E
x1541,Hamburg-Klövensteen,Germany,53.610407,N,9.77873,E
x1511,Hamburg-Ohlstedt,Germany,53.696408,N,10.135712,E
x1493,Hansági-főcsatorna,Hungary,47.6996370694608,N,17.0408573944377,E
21860,Haute-Garonne-Cazeaux-de-Larboust,France,42.7455,N,0.566,E
21861,Haute-Garonne-Lasserre,France,43.631387,N,1.191329,E
21862,Haute-Garonne-Saint-Félix-Lauragais,France,43.4295,N,1.8976,E
21863,Hautes-Pyrénées-Campan,France,42.94206,N,0.2179,E
21864,Hautes-Pyrénées-Estaing,France,42.90209,N,-0.2124,W
21865,Hautes-Pyrénées-Estaing,France,42.90209,N,-0.2124,W
21866,Hautes-Pyrénées-Génos,France,42.74526,N,0.41293,E
x115,Hérault-Avene-dam,France,43.7673,N,3.0945,E
x66,Hérault-Avene-dam,France,43.7673,N,3.0945,E
x59,Hérault-Truscas,France,43.731518,N,3.120609,E
x89,Hérault-Grabels,France,43.6481,N,3.798,E
x65,Hérault-La-Tour-sur-Orb-Le-Mas-Blanc,France,43.65033,N,3.17191,E
x95,Hérault-Lansargues,France,43.6452,N,4.0921,E
x117,Hérault-Lattes,France,43.552279,N,3.9058,E
x67,Hérault-Lattes,France,43.552279,N,3.9058,E
x97,Hérault-Le-Bosc-Loiras,France,43.708094,N,3.389724,E
x60,Hérault-Le-Bosc-Loiras,France,43.708094,N,3.389724,E
x109,Hérault-Le-Mas-Blanc,France,43.6503,N,3.1719,E
x110,Hérault-Le-Mas-Blanc,France,43.6503,N,3.1719,E
x102,Hérault-Les-Correges,France,43.670781,N,3.691793,E
x120,Hérault-Les-Correges,France,43.670781,N,3.691793,E
x86,Hérault-Massif-du-Caroux,France,43.6141,N,2.985,E
x94,Hérault-Massif-du-Caroux,France,43.6141,N,2.985,E
x68,Hérault-Montpellier,France,43.6262,N,3.8826,E
x78,Hérault-near-Col-de-la-Merquiere,France,43.6427,N,3.2444,E
x51,Hérault-Rosis-Massif-du-Caroux,France,43.614073,N,2.985004,E
x58,Hérault-Rosis-Massif-du-Caroux,France,43.614073,N,2.985004,E
x57,Hérault-Saint-Pierre-de-la-Fage,France,43.794,N,3.42257,E
x93,Hérault-Saint-Pierre-de-la-Fage,France,43.794,N,3.42257,E
x96,Hérault-Truscas,France,43.731518,N,3.120609,E
x665,Hereford-Ledbury,Great Britain,52.033882,N,-2.423574,W
x664,Hereford-Ledbury,Great Britain,52.033882,N,-2.423574,W
x674,Herefordshire-Abbey-Dore,Great Britain,51.969835,N,-2.8998741,W
x699,Herefordshire-Hatfield,Great Britain,52.233246,N,-2.593961,W
x673,Herefordshire-Tedstone-Wafre,Great Britain,52.230459,N,-2.472099,W
22036,Heřmanovice,Czech Republic,50.1994,N,17.3848,E
22037,Heřmanovice,Czech Republic,50.1994,N,17.3848,E
21719,Hesse-Bebra-Weiterode,Germany,50.960108,N,9.806491,E
x1343,Hesse-Bergen-Enkheim,Germany,50.1549,N,8.7528,E
x1335,Hesse-Biebergemünd,Germany,50.2133,N,9.277561,E
x1336,Hesse-Biebergemünd,Germany,50.2133,N,9.277561,E
x1344,Hesse-Biebergemünd-Breitenborn,Germany,50.165024,N,9.260416,E
x1345,Hesse-Flieden,Germany,50.423722,N,9.564915,E
x1405,Hesse-Flieden,Germany,50.423722,N,9.564915,E
x1464,Hesse-Flieden,Germany,50.423722,N,9.564915,E
x1347,Hesse-Hasselroth-Neuenhaßlau,Germany,50.1618119,N,9.0880393,E
21720,Hesse-Herborn,Germany,50.678187,N,8.302517,E
21721,Hesse-Hofheim-Lorsbuch,Germany,50.09834,N,8.425298,E
21722,Hesse-Lautertal-Beedenkirchen,Germany,49.7334,N,8.707735,E
x1724,Hesse-Marburg,Germany,50.8018,N,8.8093,E
x1721,Hesse-Marburg-Lahn-mountains,Germany,50.8018843,N,8.7657677,E
x1722,Hesse-Marburg-Lahn-mountains,Germany,50.8018843,N,8.7657677,E
x1723,Hesse-Marburg-Lahn-mountains,Germany,50.8018843,N,8.7657677,E
x1725,Hesse-Marburg-Lahn-mountains,Germany,50.8018843,N,8.7657677,E
21723,Hesse-Marburg-new-botanical-garden,Germany,50.801785,N,8.809311,E
21724,Hesse-Marburg-new-botanical-garden,Germany,50.801785,N,8.809311,E
21725,Hesse-Marburg-new-botanical-garden,Germany,50.801785,N,8.809311,E
21726,Hesse-near-Bad-Homburg,Germany,50.270286,N,8.565381,E
x1339,Hesse-near-Bieber,Germany,50.159965,N,9.325991,E
x1337,Hesse-near-Kelkheim-Fischbach,Germany,50.1507,N,8.4237,E
x1346,Hesse-Niederlauken,Germany,50.3448,N,8.432604,E
x1465,Hesse-Steinau,Germany,50.3166763,N,9.4512418,E
x1342,Hesse-SW-Gross-Gerau-Kühkopf,Germany,49.8248,N,8.4486,E
x1340,Hesse-W-Oberndorf,Germany,50.19366,N,9.450288,E
21777,Hilversum,Netherlands,52.212689,N,5.239119,E
21778,Hilversum,Netherlands,52.212689,N,5.239119,E
x621,Hilversum,Netherlands,52.212689,N,5.239119,E
x352,Holmestrand-Hallingsrud,Norway,59.4899189,N,10.315035,E
x1260,Hortobagy,Hungary,47.5868751,N,21.1560332,E
x979,Hortobagy,Hungary,47.5868751,N,21.1560332,E
21779,Houten,Netherlands,52.047117,N,5.161036,E
x612,Houten,Netherlands,52.047117,N,5.161036,E
x596,Hull,Great Britain,53.7676236,N,-0.3274198,W
x597,Hull,Great Britain,53.7676236,N,-0.3274198,W
x61,Isere-Clelles,France,44.8275,N,5.622582,E
x98,Isere-Clelles,France,44.8275,N,5.622582,E
22141,Istragov,Slovakia,47.84091,N,17.56289,E
x1495,Istria-NE-Lupoglav,Croatia,45.3527949,N,14.1075016,E
21655,Istria-Rovinj,Croatia,45.081763,N,13.640156,E
21656,Istria-Rovinj,Croatia,45.081763,N,13.640156,E
x104,Jakubica-Mountains,North Macedonia,41.608635,N,21.745275,E
x984,Jakubica-Mountains,North Macedonia,41.608635,N,21.745275,E
22142,Janova-Lehota,Slovakia,48.65194,N,18.75617,E
x1083,Jura-Beurnevésin,Switzerland,47.491533576,N,7.14216766,E
x1084,Jura-Beurnevésin,Switzerland,47.491533576,N,7.14216766,E
x159,Jura-Beurnevésin,Switzerland,47.491533576,N,7.14216766,E
x160,Jura-Beurnevésin,Switzerland,47.491533576,N,7.14216766,E
22143,Jurský-Šúr,Slovakia,48.23,N,17.2,E
x985,Jutland-SE-Gammel-Rye,Denmark,56.074078,N,9.69787,E
x986,Jutland-SE-Gammel-Rye,Denmark,56.074078,N,9.69787,E
x987,Jutland-SE-Gammel-Rye,Denmark,56.074078,N,9.69787,E
x988,Jutland-SE-Skanderborg,Denmark,56.037247,N,9.9297989,E
22144,Kalinkovo-Hrušovská-zdrž,Slovakia,48.04749,N,17.24009,E
22038,Kamýk-Litoměřice,Czech Republic,50.56,N,14.08,E
22039,Karviná-Olšiny,Czech Republic,49.87985,N,18.5153,E
x669,Kent-Hildenborough,Great Britain,51.216814,N,0.239516,E
22040,Klikov,Czech Republic,48.9160186,N,14.9186994,E
x780,Kobuleti,Georgia,41.815997,N,41.7838101,E
x781,Kobuleti,Georgia,41.815997,N,41.7838101,E
x381,Koder,Albania,39.8168822,N,20.1216464,E
22041,Kokořín,Czech Republic,50.43,N,14.53,E
22042,Kokořínský-Důl,Czech Republic,50.43,N,14.58,E
21804,Koper-Škocjanski-zatok,Slovenia,45.549024,N,13.75881,E
21805,Koper-Škocjanski-zatok,Slovenia,45.549024,N,13.75881,E
x263,Koper-Škocjanski-zatok,Slovenia,45.549024,N,13.75881,E
x264,Koper-Škocjanski-zatok,Slovenia,45.549024,N,13.75881,E
x265,Koper-Škocjanski-zatok,Slovenia,45.549024,N,13.75881,E
22145,Kosorín,Slovakia,48.65944,N,18.81573,E
x931,Kralovany-Kralovanská-dolina,Slovakia,49.1513927,N,19.1271609,E
x1409,Krasnodar-Otdalyonnyy,Russia,45.036035,N,38.9745706,E
x1407,Krasnodar-Tuapse,Russia,44.0961624,N,39.0745411,E
21657,Krk,Croatia,45.169149,N,14.558401,E
21658,Krk,Croatia,45.169149,N,14.558401,E
x230,Krk,Croatia,45.169149,N,14.558401,E
x375,Krk,Croatia,45.169149,N,14.558401,E
x376,Krk,Croatia,45.169149,N,14.558401,E
x599,Krk,Croatia,45.169149,N,14.558401,E
x1391,Krk,Croatia,45.169149,N,14.558401,E
x1398,Krk,Croatia,45.169149,N,14.558401,E
22043,Kundratice-Okres-Litoměřice,Czech Republic,50.58,N,14.11,E
x927,Kunpeszér,Hungary,47.0611502,N,19.2753764,E
x928,Kunpeszér,Hungary,47.0611502,N,19.2753764,E
x944,Kutaisi,Georgia,42.2662428,N,42.7180019,E
x782,Kysak-Hornád-river,Slovakia,48.8534279,N,21.2209867,E
x235,Kythira,Greece,36.2632692,N,22.9773703,E
x106,Lake-Edylsor,Kazakhstan,49.1974338733765,N,50.7831362360636,E
x107,Lake-Edylsor,Kazakhstan,49.1974338733765,N,50.7831362360636,E
x585,Lake-Prespa-Asamati,North Macedonia,40.9859408,N,21.0512568,E
x586,Lake-Prespa-Pokrvenik,North Macedonia,41.017069,N,20.9573696,E
x584,Lake-Prespa-Pretor,North Macedonia,40.9792117,N,21.0628067,E
x589,Lake-Prespa-Stenje,North Macedonia,40.9461087,N,20.9014868,E
x773,Langeland-Hov,Denmark,55.157022,N,10.936041,E
x969,Langeland-S-Tranekar,Denmark,54.997962,N,10.84806,E
x1453,Larnaka-Paralimni,Cyprus,35.0375882,N,33.9814728,E
x1250,Lazio-Monti-della-Tolfa,Italy,42.133431,N,11.900496,E
21949,Lazio-Roma,Italy,42.13934,N,12.103292,E
21951,Lazio-Roma-3,Italy,42.064017,N,12.584303,E
21950,Lazio-Roma-Insugherata,Italy,41.953959,N,12.42902,E
21952,Lazio-Viterbo-Capranica,Italy,42.259543,N,12.174631,E
21780,Leersum,Netherlands,52.009619,N,5.403219,E
x611,Leersum,Netherlands,52.009619,N,5.403219,E
21931,León-Matalavilla,Spain,42.8498,N,-6.429387,W
x606,Létavértes,Hungary,47.3835171,N,21.8798767,E
x226,Levunovo,Bulgaria,41.4871572,N,23.3054685,E
x227,Levunovo,Bulgaria,41.4871572,N,23.3054685,E
x212,Liguria-Imperia-Taggia,Italy,43.861661,N,7.854473,E
x47,Liguria-La-Spezia-Carrodano,Italy,44.24207,N,9.67736,E
x281,Liljanovo,Bulgaria,41.6163929,N,23.3164047,E
22119,Lipót,Hungary,47.86178,N,17.461023,E
x786,Liptovský-Hrádok-Belá-river,Slovakia,49.0397084,N,19.7275984,E
x1492,Lisboa-Serra-de-Sintra,Portugal,38.8023,N,-9.4325,W
x1396,Little-Prespa-Lake-near-Florina,Greece,40.8833161,N,21.022196,E
x1425,Ljubljana,Slovenia,46.0569465,N,14.5057515,E
21806,Ljubljana-moor-Curnovec,Slovenia,45.967225,N,15.601651,E
21807,Ljubljana-moor-Deponija-Vic,Slovenia,46.020906,N,14.465175,E
21808,Ljubljana-moor-Draga-pri-Igu,Slovenia,45.946943,N,14.548323,E
21809,Ljubljana-moor-Draga-pri-Igu,Slovenia,45.946943,N,14.548323,E
x261,Ljubljana-moor-Draga-pri-Igu,Slovenia,45.946943,N,14.548323,E
x262,Ljubljana-moor-Draga-pri-Igu,Slovenia,45.946943,N,14.548323,E
21810,Ljubljansko-barje,Slovenia,45.69455,N,14.677877,E
21811,Ljubljansko-barje-Bistra,Slovenia,45.9446,N,14.3356,E
21812,Ljubljansko-barje-Log-pri-Brezovici,Slovenia,46.003818,N,14.362042,E
21813,Ljubljansko-barje-Pako,Slovenia,45.940705,N,14.369674,E
21814,Ljubljansko-barje-Pako,Slovenia,45.940705,N,14.369674,E
x268,Ljubljansko-barje-Pako,Slovenia,45.940705,N,14.369674,E
x1421,Lleida-Tortosa-Port-de-Comte,Spain,40.8128,N,0.5197,E
21867,Loire-Atlantique-Blain-Les-Brulais,France,47.4495,N,-1.7881,W
21868,Loire-Atlantique-Blain-Les-Brulais,France,47.4495,N,-1.7881,W
22154,Loire-Atlantique-Bouvron-Gautrais,France,47.4102166666667,N,-1.872747222,W
22155,Loire-Atlantique-Bouvron-Grand-Momesson,France,47.40204167,N,-1.879125,W
22156,Loire-Atlantique-Bouvron-Grand-Momesson,France,47.40204167,N,-1.879125,W
x869,Loire-Atlantique-Bouvron-Grand-Momesson,France,47.40204167,N,-1.879125,W
x870,Loire-Atlantique-Bouvron-Grand-Momesson,France,47.40204167,N,-1.879125,W
22167,Loire-Atlantique-Bouvron-LHôtel-Guiton,France,47.3993833333333,N,-1.8982,W
22157,Loire-Atlantique-Bouvron-La-Gare,France,47.42641667,N,-1.8463,W
22158,Loire-Atlantique-Bouvron-La-Haie,France,47.3967,N,-1.86914722222222,W
21869,Loire-Atlantique-Bouvron-La-Renaudais,France,47.3876,N,-1.9026,W
21870,Loire-Atlantique-Bouvron-La-Renaudais,France,47.3876,N,-1.9026,W
22159,Loire-Atlantique-Bouvron-Le-Landron,France,47.39384444,N,-1.84421388888889,W
22160,Loire-Atlantique-Bouvron-Le-Landron,France,47.39384444,N,-1.84421388888889,W
22161,Loire-Atlantique-Campbon-Bruneliere,France,47.41961389,N,-1.9262,W
22162,Loire-Atlantique-Campbon-Bruneliere,France,47.41961389,N,-1.9262,W
21871,Loire-Atlantique-Donges-Bois-Joubert,France,47.3566527777778,N,-2.1253,W
21872,Loire-Atlantique-Donges-Bois-Joubert,France,47.3566527777778,N,-2.1253,W
21873,Loire-Atlantique-Drefféac-La-Dalle,France,47.46324167,N,-2.05827777777778,W
21875,Loire-Atlantique-Drefféac-Les-Landes-de-Bilais,France,47.4611,N,-2.0617,W
21876,Loire-Atlantique-Drefféac-Les-Landes-de-Bilais,France,47.4611,N,-2.0617,W
21874,Loire-Atlantique-Drefféac-Les-Landes-de-Bilais,France,47.4611,N,-2.0617,W
x846,Loire-Atlantique-Drefféac-Les-Landes-de-Bilais,France,47.4611,N,-2.0617,W
x847,Loire-Atlantique-Drefféac-Les-Landes-de-Bilais,France,47.4611,N,-2.0617,W
x848,Loire-Atlantique-Drefféac-Les-Landes-de-Bilais,France,47.4611,N,-2.0617,W
x849,Loire-Atlantique-Drefféac-Les-Landes-de-Bilais,France,47.4611,N,-2.0617,W
x850,Loire-Atlantique-Drefféac-Les-Landes-de-Bilais,France,47.4611,N,-2.0617,W
x851,Loire-Atlantique-Drefféac-Les-Landes-de-Bilais,France,47.4611,N,-2.0617,W
x852,Loire-Atlantique-Drefféac-Les-Landes-de-Bilais,France,47.4611,N,-2.0617,W
x853,Loire-Atlantique-Drefféac-Les-Landes-de-Bilais,France,47.4611,N,-2.0617,W
x854,Loire-Atlantique-Drefféac-Les-Landes-de-Bilais,France,47.4611,N,-2.0617,W
x855,Loire-Atlantique-Drefféac-Les-Landes-de-Bilais,France,47.4611,N,-2.0617,W
x856,Loire-Atlantique-Drefféac-Les-Landes-de-Bilais,France,47.4611,N,-2.0617,W
x857,Loire-Atlantique-Drefféac-Les-Landes-de-Bilais,France,47.4611,N,-2.0617,W
x858,Loire-Atlantique-Drefféac-Les-Landes-de-Bilais,France,47.4611,N,-2.0617,W
x859,Loire-Atlantique-Drefféac-Les-Landes-de-Bilais,France,47.4611,N,-2.0617,W
x860,Loire-Atlantique-Drefféac-Les-Landes-de-Bilais,France,47.4611,N,-2.0617,W
x861,Loire-Atlantique-Drefféac-Les-Landes-de-Bilais,France,47.4611,N,-2.0617,W
x862,Loire-Atlantique-Drefféac-Les-Landes-de-Bilais,France,47.4611,N,-2.0617,W
x863,Loire-Atlantique-Drefféac-Les-Landes-de-Bilais,France,47.4611,N,-2.0617,W
x864,Loire-Atlantique-Drefféac-Les-Landes-de-Bilais,France,47.4611,N,-2.0617,W
x865,Loire-Atlantique-Drefféac-Les-Landes-de-Bilais,France,47.4611,N,-2.0617,W
x866,Loire-Atlantique-Drefféac-Les-Landes-de-Bilais,France,47.4611,N,-2.0617,W
x867,Loire-Atlantique-Drefféac-Les-Landes-de-Bilais,France,47.4611,N,-2.0617,W
x868,Loire-Atlantique-Drefféac-Les-Landes-de-Bilais,France,47.4611,N,-2.0617,W
x871,Loire-Atlantique-Drefféac-Les-Landes-de-Bilais,France,47.4611,N,-2.0617,W
x872,Loire-Atlantique-Drefféac-Les-Landes-de-Bilais,France,47.4611,N,-2.0617,W
x873,Loire-Atlantique-Drefféac-Les-Landes-de-Bilais,France,47.4611,N,-2.0617,W
x874,Loire-Atlantique-Drefféac-Les-Landes-de-Bilais,France,47.4611,N,-2.0617,W
x875,Loire-Atlantique-Drefféac-Les-Landes-de-Bilais,France,47.4611,N,-2.0617,W
x876,Loire-Atlantique-Drefféac-Les-Landes-de-Bilais,France,47.4611,N,-2.0617,W
x877,Loire-Atlantique-Drefféac-Les-Landes-de-Bilais,France,47.4611,N,-2.0617,W
x878,Loire-Atlantique-Drefféac-Les-Landes-de-Bilais,France,47.4611,N,-2.0617,W
x879,Loire-Atlantique-Drefféac-Les-Landes-de-Bilais,France,47.4611,N,-2.0617,W
x880,Loire-Atlantique-Drefféac-Les-Landes-de-Bilais,France,47.4611,N,-2.0617,W
x881,Loire-Atlantique-Drefféac-Les-Landes-de-Bilais,France,47.4611,N,-2.0617,W
x882,Loire-Atlantique-Drefféac-Les-Landes-de-Bilais,France,47.4611,N,-2.0617,W
x883,Loire-Atlantique-Drefféac-Les-Landes-de-Bilais,France,47.4611,N,-2.0617,W
x884,Loire-Atlantique-Drefféac-Les-Landes-de-Bilais,France,47.4611,N,-2.0617,W
x885,Loire-Atlantique-Drefféac-Les-Landes-de-Bilais,France,47.4611,N,-2.0617,W
22163,Loire-Atlantique-Fay-de-Bretagne-Bourget,France,47.3869,N,-1.760964,W
22165,Loire-Atlantique-Gâvre-Foret-domaniale,France,47.510347,N,-1.805225,W
22164,Loire-Atlantique-Gâvre-La-Lande-de-la-Gree,France,47.5044,N,-1.7653,W
22166,Loire-Atlantique-Saint-Anne-sur-Brivet-Pont-de-la-Rénais,France,47.4803,N,-2.0139,W
x48,Loire-Cleppé-700-m-au-sud-de-La-Roche,France,45.7839,N,4.1742,E
x43,Loire-Cleppé-étang-des-Varennes,France,45.7751,N,4.1737,E
x72,Loire-Cleppé-étang-des-Varennes,France,45.7751,N,4.1737,E
x46,Loire-Cleppé-le-Bourg,France,45.7685,N,4.1783,E
x77,Loire-Cleppé-le-Bourg,France,45.7685,N,4.1783,E
x79,Loire-Cleppé-S-La-Roche,France,45.7839,N,4.1742,E
x56,Loire-Sainte-Foy-Saint-Sulpice,France,45.7684,N,4.1291,E
x92,Loire-Sainte-Foy-Saint-Sulpice,France,45.7684,N,4.1291,E
x76,Loire-Valeille-NE-étang-Vieux-Ouest,France,45.7168,N,4.2522,E
x45,Loire-Valeille-route-au-coin-NE-de-létang-Vieux-Ouest,France,45.7168,N,4.2522,E
x75,Loire-Valeille-route-au-coin-NE-de-létang-Vieux-Ouest,France,45.7168,N,4.2522,E
x44,Loire-Valeille-route-au-coin-NE-de-létang-Vieux-Ouest,France,45.7168,N,4.2522,E
21941,Lombardy-Milano-30-km-W-Milano,Italy,45.467354,N,8.801308,E
21988,Lombardy-Milano-Noviglio-Mairano,Italy,45.357297,N,9.06994,E
22005,Lombardy-Pavia,Italy,45.181849,N,9.187354,E
21989,Lombardy-Pavia-Bereguardo-Zelata-di-Bereguardo,Italy,45.2638,N,9.001272,E
21990,Lombardy-Pavia-Borgo-Ticino,Italy,45.179625,N,9.152816,E
21991,Lombardy-Pavia-Bosco-G-Negri,Italy,45.172504,N,9.140546,E
21992,Lombardy-Pavia-Marcignago,Italy,45.252598,N,9.075981,E
21942,Lombardy-Sondrio-Samolaco,Italy,46.233863,N,9.413885,E
22021,Lower-Austria-Bergern,Austria,48.358074,N,15.517988,E
x1271,Lower-Austria-Ernstbrunn,Austria,48.5259898,N,16.3594228,E
x1264,Lower-Austria-Grünbach-am-Schneeberg,Austria,47.7959803,N,15.9932822,E
x1470,Lower-Austria-Losenheim,Austria,47.7907828,N,15.8435085,E
x1263,Lower-Austria-near-Hollabrunn,Austria,48.5625696,N,16.0787228,E
x1272,Lower-Austria-Perchtoldsdorf,Austria,48.12,N,16.27,E
x1281,Lower-Austria-Sommerein,Austria,47.99,N,16.66,E
x1266,Lower-Austria-St-Pölten,Austria,48.20353,N,15.63817,E
x1276,Lower-Austria-St-Valentin,Austria,48.1751847,N,14.5254825,E
x1284,Lower-Austria-Stopfenreuth,Austria,48.1487038,N,16.880288,E
21727,Lower-Saxony-Cuxhaven-Spanger-Heide,Germany,53.845215,N,8.617833,E
21728,Lower-Saxony-Cuxhaven-Spanger-Heide,Germany,53.845215,N,8.617833,E
21733,Lower-Saxony-Dannefeld,Germany,52.500967,N,11.122084,E
x188,Lower-Saxony-Frieschenmoor,Germany,53.374828,N,8.393875,E
22064,Lower-Saxony-Gartow,Germany,53.055866,N,11.433835,E
x183,Lower-Saxony-Hude,Germany,53.108247,N,8.462706,E
x186,Lower-Saxony-Huntlosen,Germany,52.990921,N,8.281875,E
21729,Lower-Saxony-Lachendorf,Germany,52.621393,N,10.241604,E
21730,Lower-Saxony-Lachendorf,Germany,52.621393,N,10.241604,E
x1477,Lower-Saxony-Lachendorf,Germany,52.621393,N,10.241604,E
x1483,Lower-Saxony-Leiferde,Germany,52.4378841,N,10.4361139,E
x1512,Lower-Saxony-Lüchow-Dannenberg-Pevestorf,Germany,53.057393,N,11.457966,E
x1513,Lower-Saxony-Lüchow-Dannenberg-Pevestorf,Germany,53.057393,N,11.457966,E
x1514,Lower-Saxony-Lüchow-Dannenberg-Pevestorf,Germany,53.057393,N,11.457966,E
x1518,Lower-Saxony-Lüchow-Dannenberg-Pevestorf,Germany,53.057393,N,11.457966,E
x1520,Lower-Saxony-Lüchow-Dannenberg-Pevestorf,Germany,53.057393,N,11.457966,E
x1524,Lower-Saxony-Lüchow-Dannenberg-Pevestorf,Germany,53.057393,N,11.457966,E
x1525,Lower-Saxony-Lüchow-Dannenberg-Pevestorf,Germany,53.057393,N,11.457966,E
x1526,Lower-Saxony-Lüchow-Dannenberg-Pevestorf,Germany,53.057393,N,11.457966,E
x1533,Lower-Saxony-Lüchow-Dannenberg-Pevestorf,Germany,53.057393,N,11.457966,E
x1534,Lower-Saxony-Lüchow-Dannenberg-Pevestorf,Germany,53.057393,N,11.457966,E
x1535,Lower-Saxony-Lüchow-Dannenberg-Pevestorf,Germany,53.057393,N,11.457966,E
x1539,Lower-Saxony-Lüchow-Dannenberg-Pevestorf,Germany,53.057393,N,11.457966,E
x1540,Lower-Saxony-Lüchow-Dannenberg-Pevestorf,Germany,53.057393,N,11.457966,E
x1542,Lower-Saxony-Lüchow-Dannenberg-Pevestorf,Germany,53.057393,N,11.457966,E
x1543,Lower-Saxony-Lüchow-Dannenberg-Pevestorf,Germany,53.057393,N,11.457966,E
21731,Lower-Saxony-Meißendorf,Germany,52.729431,N,9.84983,E
21732,Lower-Saxony-near-Celle-Bannetzer-Moor,Germany,52.711539,N,9.787689,E
x601,Lower-Saxony-near-Cuxhaven-Arensch,Germany,53.835436,N,8.583105,E
x185,Lower-Saxony-Oldenbrok,Germany,53.289146,N,8.396735,E
x187,Lower-Saxony-Oldenburg-Eversten,Germany,53.1271739,N,8.181979,E
21734,Lower-Saxony-Oldendorf-Luhe,Germany,53.147681,N,10.219957,E
x184,Lower-Saxony-S-Oldenburg-Barneführer-Holz,Germany,53.027947,N,8.264414,E
21735,Lower-Saxony-Steinhuder-Meer,Germany,52.46035,N,9.265065,E
21736,Lower-Saxony-Steinhuder-Meer,Germany,52.46035,N,9.265065,E
x736,Lozenets,Bulgaria,42.2082646,N,27.8066174,E
x437,Lublin-Kosyn,Poland,51.3869027,N,23.5651994,E
21932,Lugo-Fonsagrada-Penamaior,Spain,43.12384,N,-7.008,W
21933,Lugo-Lamas-de-Moreira,Spain,43.06188,N,-7.07334,W
21815,Lukavci-near-Ljutomer,Slovenia,46.540237,N,16.150006,E
21816,Lukavci-near-Ljutomer,Slovenia,46.540237,N,16.150006,E
x266,Lukavci-near-Ljutomer,Slovenia,46.540237,N,16.150006,E
x267,Lukavci-near-Ljutomer,Slovenia,46.540237,N,16.150006,E
22044,Lužnice,Czech Republic,49.05557,N,14.75138,E
x948,Maglič-Mountain-Prijevor,Bosnia and Herzegovina,43.2813063,N,18.7332362,E
x962,Malko-Gradište-pass,Bulgaria,41.7600145,N,25.9921238,E
x542,Małopolska-Książ-Wielki,Poland,50.4432956,N,20.1398642,E
x544,Małopolska-Książ-Wielki,Poland,50.4432956,N,20.1398642,E
x545,Małopolska-Książ-Wielki,Poland,50.4432956,N,20.1398642,E
22146,Maňa-Žitavský-luh,Slovakia,48.17699,N,18.28978,E
x945,Marcinkonys,Lithuania,54.0535769,N,24.4069159,E
x783,Margecany-Ružín-Dam,Slovakia,48.861389,N,21.0875,E
22147,Marianka,Slovakia,48.24614,N,17.07848,E
22148,Marianka,Slovakia,48.24614,N,17.07848,E
x552,Marianka,Slovakia,48.24614,N,17.07848,E
x553,Marianka,Slovakia,48.24614,N,17.07848,E
x554,Marianka,Slovakia,48.24614,N,17.07848,E
x555,Marianka,Slovakia,48.24614,N,17.07848,E
x556,Marianka,Slovakia,48.24614,N,17.07848,E
x557,Marianka,Slovakia,48.24614,N,17.07848,E
x558,Marianka,Slovakia,48.24614,N,17.07848,E
x559,Marianka,Slovakia,48.24614,N,17.07848,E
x560,Marianka,Slovakia,48.24614,N,17.07848,E
x561,Marianka,Slovakia,48.24614,N,17.07848,E
x562,Marianka,Slovakia,48.24614,N,17.07848,E
x105,Marmara-Region-Beşevler,Turkey,40.830005,N,30.240544,E
x252,Mazovia-Kampinos-National-Park,Poland,52.3162506,N,20.6198094,E
x989,Mazovia-Kampinos-National-Park,Poland,52.3162506,N,20.6198094,E
x990,Mazovia-Kampinos-National-Park,Poland,52.3162506,N,20.6198094,E
x991,Mazovia-Kampinos-National-Park,Poland,52.3162506,N,20.6198094,E
x992,Mazovia-Kampinos-National-Park,Poland,52.3162506,N,20.6198094,E
x993,Mazovia-Kampinos-National-Park,Poland,52.3162506,N,20.6198094,E
x994,Mazovia-Kampinos-National-Park,Poland,52.3162506,N,20.6198094,E
21737,Mecklenburg-Western-Pomerania-3-km-E-Wesenberg,Germany,53.277224,N,13.00498,E
21738,Mecklenburg-Western-Pomerania-3-km-E-Wesenberg,Germany,53.277224,N,13.00498,E
x334,Mecklenburg-Western-Pomerania-3-km-E-Wesenberg,Germany,53.277224,N,13.00498,E
x335,Mecklenburg-Western-Pomerania-3-km-E-Wesenberg,Germany,53.277224,N,13.00498,E
x336,Mecklenburg-Western-Pomerania-3-km-E-Wesenberg,Germany,53.277224,N,13.00498,E
x337,Mecklenburg-Western-Pomerania-3-km-E-Wesenberg,Germany,53.277224,N,13.00498,E
x338,Mecklenburg-Western-Pomerania-3-km-E-Wesenberg,Germany,53.277224,N,13.00498,E
x339,Mecklenburg-Western-Pomerania-3-km-E-Wesenberg,Germany,53.277224,N,13.00498,E
x340,Mecklenburg-Western-Pomerania-3-km-E-Wesenberg,Germany,53.277224,N,13.00498,E
x341,Mecklenburg-Western-Pomerania-3-km-E-Wesenberg,Germany,53.277224,N,13.00498,E
x342,Mecklenburg-Western-Pomerania-3-km-E-Wesenberg,Germany,53.277224,N,13.00498,E
x343,Mecklenburg-Western-Pomerania-3-km-E-Wesenberg,Germany,53.277224,N,13.00498,E
x344,Mecklenburg-Western-Pomerania-3-km-E-Wesenberg,Germany,53.277224,N,13.00498,E
x345,Mecklenburg-Western-Pomerania-3-km-E-Wesenberg,Germany,53.277224,N,13.00498,E
x346,Mecklenburg-Western-Pomerania-3-km-E-Wesenberg,Germany,53.277224,N,13.00498,E
x347,Mecklenburg-Western-Pomerania-3-km-E-Wesenberg,Germany,53.277224,N,13.00498,E
x348,Mecklenburg-Western-Pomerania-3-km-E-Wesenberg,Germany,53.277224,N,13.00498,E
x1295,Mecklenburg-Western-Pomerania-Boitin,Germany,53.75919,N,11.979768,E
22068,Mecklenburg-Western-Pomerania-Carwitz,Germany,53.302057,N,13.439956,E
x1302,Mecklenburg-Western-Pomerania-Groß-Miltzow,Germany,53.536125,N,13.592634,E
x1303,Mecklenburg-Western-Pomerania-Groß-Miltzow,Germany,53.536125,N,13.592634,E
x1288,Mecklenburg-Western-Pomerania-near-Ahlbeck,Germany,53.940528,N,14.188228,E
x1301,Mecklenburg-Western-Pomerania-near-Ahlbeck,Germany,53.940528,N,14.188228,E
22065,Mecklenburg-Western-Pomerania-near-Altwarp,Germany,53.742214,N,14.263287,E
22066,Mecklenburg-Western-Pomerania-near-Altwarp,Germany,53.742214,N,14.263287,E
x505,Mecklenburg-Western-Pomerania-near-Altwarp,Germany,53.742214,N,14.263287,E
x506,Mecklenburg-Western-Pomerania-near-Altwarp,Germany,53.742214,N,14.263287,E
x507,Mecklenburg-Western-Pomerania-near-Altwarp,Germany,53.742214,N,14.263287,E
x508,Mecklenburg-Western-Pomerania-near-Altwarp,Germany,53.742214,N,14.263287,E
22067,Mecklenburg-Western-Pomerania-near-Carwitz,Germany,53.302057,N,13.439956,E
x496,Mecklenburg-Western-Pomerania-near-Carwitz,Germany,53.302057,N,13.439956,E
x497,Mecklenburg-Western-Pomerania-near-Carwitz,Germany,53.302057,N,13.439956,E
x498,Mecklenburg-Western-Pomerania-near-Carwitz,Germany,53.302057,N,13.439956,E
x499,Mecklenburg-Western-Pomerania-near-Carwitz,Germany,53.302057,N,13.439956,E
x500,Mecklenburg-Western-Pomerania-near-Carwitz,Germany,53.302057,N,13.439956,E
x501,Mecklenburg-Western-Pomerania-near-Carwitz,Germany,53.302057,N,13.439956,E
x502,Mecklenburg-Western-Pomerania-near-Carwitz,Germany,53.302057,N,13.439956,E
x503,Mecklenburg-Western-Pomerania-near-Carwitz,Germany,53.302057,N,13.439956,E
x504,Mecklenburg-Western-Pomerania-near-Carwitz,Germany,53.302057,N,13.439956,E
x753,Mecklenburg-Western-Pomerania-near-Stralsund,Germany,54.296243,N,12.989813,E
x543,Mecklenburg-Western-Pomerania-near-Wustrow-Buchsee,Germany,54.3486911,N,12.3962673,E
22069,Mecklenburg-Western-Pomerania-Neubrandenburg,Germany,53.570594,N,13.29586,E
22070,Mecklenburg-Western-Pomerania-Neubrandenburg,Germany,53.570594,N,13.29586,E
x1292,Mecklenburg-Western-Pomerania-Neubrandenburg,Germany,53.570594,N,13.29586,E
x333,Mecklenburg-Western-Pomerania-Neubrandenburg,Germany,53.570594,N,13.29586,E
22071,Mecklenburg-Western-Pomerania-Neubrandenburg-Lake-Tollense,Germany,53.525207,N,13.240757,E
x1390,Mecklenburg-Western-Pomerania-Neukloster,Germany,53.866093,N,11.687193,E
x1291,Mecklenburg-Western-Pomerania-Prerow,Germany,54.4439319,N,12.5652072,E
x756,Mecklenburg-Western-Pomerania-Rostock-Radelsee,Germany,54.1860618,N,12.1483007,E
x754,Mecklenburg-Western-Pomerania-Saal-OT-Neuendorf-Heide,Germany,54.340179,N,12.546142,E
x755,Mecklenburg-Western-Pomerania-Saal-OT-Neuendorf-Heide,Germany,54.340179,N,12.546142,E
21739,Mecklenburg-Western-Pomerania-Usedom,Germany,53.911619,N,14.162064,E
21740,Mecklenburg-Western-Pomerania-Usedom,Germany,53.911619,N,14.162064,E
21817,Mele,Slovenia,46.665224,N,16.049252,E
x784,Michalovce-Šíravský-kanál,Slovakia,48.7931122055376,N,21.915972600721,E
x700,Milos,Greece,36.6914464,N,24.3935655,E
22045,Moravský-Písek,Czech Republic,49.010589,N,17.342891,E
x965,Mtskheta,Georgia,41.8411674,N,44.7073864,E
x955,Muránska-Lehota,Slovakia,48.7283054,N,20.0480906,E
21818,Murski-Petrovci,Slovenia,46.651557,N,16.083584,E
21825,Murski-Petrovci,Slovenia,46.651557,N,16.083584,E
x963,N-Stepanzminda,Georgia,42.660268,N,44.641143,E
x964,N-Stepanzminda,Georgia,42.660268,N,44.641143,E
22046,Na-Plachtě-Hradec-Králové,Czech Republic,50.18841,N,15.8609,E
x363,Närke-Klockhammar,Sweden,59.382781,N,15.029724,E
22047,Narodní-park-Podyjí,Czech Republic,48.81161,N,15.97601,E
x975,National-Park-Galičica,North Macedonia,40.9641667,N,20.8327778,E
x539,NE-Šilute,Lithuania,55.350414,N,21.4659859,E
x540,NE-Šilute,Lithuania,55.350414,N,21.4659859,E
x541,NE-Šilute,Lithuania,55.350414,N,21.4659859,E
21796,near-Bled-Kreda-pond,Slovenia,46.368253,N,14.112182,E
22023,near-Capljina-Hutovo-Blato,Bosnia and Herzegovina,43.06661,N,17.75,E
22024,near-Capljina-Hutovo-Blato,Bosnia and Herzegovina,43.06661,N,17.75,E
x546,near-Capljina-Hutovo-Blato,Bosnia and Herzegovina,43.06661,N,17.75,E
x547,near-Capljina-Hutovo-Blato,Bosnia and Herzegovina,43.06661,N,17.75,E
x402,near-Fülöpstallas,Hungary,47.162494,N,19.503304,E
x403,near-Fülöpstallas,Hungary,47.162494,N,19.503304,E
x1500,near-island-Ada,Montenegro,41.862,N,19.361,E
x374,near-Kunpeszér-Sarlóspuszta,Hungary,47.0426946,N,19.3457019,E
21819,near-Maribor-Cigonca-Forest,Slovenia,46.3631,N,15.582032,E
21820,near-Maribor-Racki-Ribnik,Slovenia,46.441524,N,15.678685,E
x593,near-Memaliaj-Schendli-Mountains,Albania,40.349053,N,19.9765952,E
x594,near-Memaliaj-Schendli-Mountains,Albania,40.349053,N,19.9765952,E
x595,near-Memaliaj-Schendli-Mountains,Albania,40.349053,N,19.9765952,E
x1399,near-Šibenik-Krka-falls,Croatia,43.7350196,N,15.8952045,E
x590,near-Sukë-Trebeshine-Mountains,Albania,40.3741554,N,20.1558946,E
x591,near-Sukë-Trebeshine-Mountains,Albania,40.3741554,N,20.1558946,E
x377,near-Sukë-Trebeshine-Mountains,Albania,40.3741554,N,20.1558946,E
x509,near-Tokaj,Hungary,48.1172148,N,21.4089015,E
x510,near-Tokaj,Hungary,48.1172148,N,21.4089015,E
x511,near-Tokaj,Hungary,48.1172148,N,21.4089015,E
x512,near-Tokaj,Hungary,48.1172148,N,21.4089015,E
x513,near-Tokaj,Hungary,48.1172148,N,21.4089015,E
x514,near-Tokaj,Hungary,48.1172148,N,21.4089015,E
x515,near-Tokaj,Hungary,48.1172148,N,21.4089015,E
x516,near-Tokaj,Hungary,48.1172148,N,21.4089015,E
x517,near-Tokaj,Hungary,48.1172148,N,21.4089015,E
x518,near-Tokaj,Hungary,48.1172148,N,21.4089015,E
x519,near-Tokaj,Hungary,48.1172148,N,21.4089015,E
x520,near-Tokaj,Hungary,48.1172148,N,21.4089015,E
x521,near-Tokaj,Hungary,48.1172148,N,21.4089015,E
x522,near-Tokaj,Hungary,48.1172148,N,21.4089015,E
x523,near-Tokaj,Hungary,48.1172148,N,21.4089015,E
x524,near-Tokaj,Hungary,48.1172148,N,21.4089015,E
x525,near-Tokaj,Hungary,48.1172148,N,21.4089015,E
x526,near-Tokaj,Hungary,48.1172148,N,21.4089015,E
x527,near-Tokaj,Hungary,48.1172148,N,21.4089015,E
x528,near-Tokaj,Hungary,48.1172148,N,21.4089015,E
x529,near-Tokaj,Hungary,48.1172148,N,21.4089015,E
x530,near-Tokaj,Hungary,48.1172148,N,21.4089015,E
x531,near-Tokaj,Hungary,48.1172148,N,21.4089015,E
x532,near-Tokaj,Hungary,48.1172148,N,21.4089015,E
x533,near-Tokaj,Hungary,48.1172148,N,21.4089015,E
x534,near-Tokaj,Hungary,48.1172148,N,21.4089015,E
x535,near-Tokaj,Hungary,48.1172148,N,21.4089015,E
x536,near-Tokaj,Hungary,48.1172148,N,21.4089015,E
x537,near-Tokaj,Hungary,48.1172148,N,21.4089015,E
x538,near-Tokaj,Hungary,48.1172148,N,21.4089015,E
x743,Nerodime-e-Poshtme,Kosovo,42.3643428,N,21.0982021,E
x1441,Nestos-Delta,Greece,41.00782,N,25.110836,E
x735,Norfolk-Aylsham,Great Britain,52.796672,N,1.252352,E
x657,Norfolk-Cirby-Cane,Great Britain,52.4943219,N,1.494464,E
x1430,North-Rhine-Westphalia-Bad-Honnef,Germany,50.642494,N,7.22723,E
x1431,North-Rhine-Westphalia-Bad-Honnef,Germany,50.642494,N,7.22723,E
x1496,North-Rhine-Westphalia-Bad-Münstereifel,Germany,50.5576854,N,6.7612985,E
21742,North-Rhine-Westphalia-between-Ammelsbüren-and-Davensberg,Germany,51.842725,N,7.598069,E
21741,North-Rhine-Westphalia-between-Ammelsbüren-and-Davensberg,Germany,51.842725,N,7.598069,E
x306,North-Rhine-Westphalia-between-Ammelsbüren-and-Davensberg,Germany,51.842725,N,7.598069,E
x307,North-Rhine-Westphalia-between-Ammelsbüren-and-Davensberg,Germany,51.842725,N,7.598069,E
x308,North-Rhine-Westphalia-between-Ammelsbüren-and-Davensberg,Germany,51.842725,N,7.598069,E
x309,North-Rhine-Westphalia-between-Ammelsbüren-and-Davensberg,Germany,51.842725,N,7.598069,E
x310,North-Rhine-Westphalia-between-Ammelsbüren-and-Davensberg,Germany,51.842725,N,7.598069,E
x311,North-Rhine-Westphalia-between-Ammelsbüren-and-Davensberg,Germany,51.842725,N,7.598069,E
x312,North-Rhine-Westphalia-between-Ammelsbüren-and-Davensberg,Germany,51.842725,N,7.598069,E
x313,North-Rhine-Westphalia-between-Ammelsbüren-and-Davensberg,Germany,51.842725,N,7.598069,E
x314,North-Rhine-Westphalia-between-Ammelsbüren-and-Davensberg,Germany,51.842725,N,7.598069,E
x315,North-Rhine-Westphalia-between-Ammelsbüren-and-Davensberg,Germany,51.842725,N,7.598069,E
x319,North-Rhine-Westphalia-between-Ammelsbüren-and-Davensberg,Germany,51.842725,N,7.598069,E
x320,North-Rhine-Westphalia-between-Ammelsbüren-and-Davensberg,Germany,51.842725,N,7.598069,E
x321,North-Rhine-Westphalia-between-Ammelsbüren-and-Davensberg,Germany,51.842725,N,7.598069,E
x322,North-Rhine-Westphalia-between-Ammelsbüren-and-Davensberg,Germany,51.842725,N,7.598069,E
x323,North-Rhine-Westphalia-between-Ammelsbüren-and-Davensberg,Germany,51.842725,N,7.598069,E
x324,North-Rhine-Westphalia-between-Ammelsbüren-and-Davensberg,Germany,51.842725,N,7.598069,E
x325,North-Rhine-Westphalia-between-Ammelsbüren-and-Davensberg,Germany,51.842725,N,7.598069,E
x326,North-Rhine-Westphalia-between-Ammelsbüren-and-Davensberg,Germany,51.842725,N,7.598069,E
x327,North-Rhine-Westphalia-between-Ammelsbüren-and-Davensberg,Germany,51.842725,N,7.598069,E
x328,North-Rhine-Westphalia-between-Ammelsbüren-and-Davensberg,Germany,51.842725,N,7.598069,E
x329,North-Rhine-Westphalia-between-Ammelsbüren-and-Davensberg,Germany,51.842725,N,7.598069,E
x330,North-Rhine-Westphalia-between-Ammelsbüren-and-Davensberg,Germany,51.842725,N,7.598069,E
x331,North-Rhine-Westphalia-between-Ammelsbüren-and-Davensberg,Germany,51.842725,N,7.598069,E
x1452,North-Rhine-Westphalia-between-Bergisch-Gladbach-and-Herrenstrunden,Germany,50.996202,N,7.16496,E
x1435,North-Rhine-Westphalia-between-Hürtgenwald-and-Gey,Germany,50.728198,N,6.392298,E
21743,North-Rhine-Westphalia-between-Ratingen-and-Düsseldorf,Germany,51.274052,N,6.840177,E
x1432,North-Rhine-Westphalia-Bonn,Germany,50.740366,N,7.097054,E
x1502,North-Rhine-Westphalia-Bonn,Germany,50.740366,N,7.097054,E
x1504,North-Rhine-Westphalia-Bonn,Germany,50.740366,N,7.097054,E
x1505,North-Rhine-Westphalia-Bonn,Germany,50.740366,N,7.097054,E
x1485,North-Rhine-Westphalia-Bonn-Kottenforst,Germany,50.657732,N,7.076168,E
21744,North-Rhine-Westphalia-Brüchermühle,Germany,50.926031,N,7.637801,E
21745,North-Rhine-Westphalia-Brüchermühle,Germany,50.926031,N,7.637801,E
x476,North-Rhine-Westphalia-Brüchermühle,Germany,50.926031,N,7.637801,E
x477,North-Rhine-Westphalia-Brüchermühle,Germany,50.926031,N,7.637801,E
x478,North-Rhine-Westphalia-Brüchermühle,Germany,50.926031,N,7.637801,E
x479,North-Rhine-Westphalia-Brüchermühle,Germany,50.926031,N,7.637801,E
x480,North-Rhine-Westphalia-Brüchermühle,Germany,50.926031,N,7.637801,E
x481,North-Rhine-Westphalia-Brüchermühle,Germany,50.926031,N,7.637801,E
x482,North-Rhine-Westphalia-Brüchermühle,Germany,50.926031,N,7.637801,E
x483,North-Rhine-Westphalia-Brüchermühle,Germany,50.926031,N,7.637801,E
x484,North-Rhine-Westphalia-Brüchermühle,Germany,50.926031,N,7.637801,E
x485,North-Rhine-Westphalia-Brüchermühle,Germany,50.926031,N,7.637801,E
x486,North-Rhine-Westphalia-Brüchermühle,Germany,50.926031,N,7.637801,E
x487,North-Rhine-Westphalia-Brüchermühle,Germany,50.926031,N,7.637801,E
x488,North-Rhine-Westphalia-Brüchermühle,Germany,50.926031,N,7.637801,E
x489,North-Rhine-Westphalia-Brüchermühle,Germany,50.926031,N,7.637801,E
x490,North-Rhine-Westphalia-Brüchermühle,Germany,50.926031,N,7.637801,E
x491,North-Rhine-Westphalia-Brüchermühle,Germany,50.926031,N,7.637801,E
x492,North-Rhine-Westphalia-Brüchermühle,Germany,50.926031,N,7.637801,E
x493,North-Rhine-Westphalia-Brüchermühle,Germany,50.926031,N,7.637801,E
21756,North-Rhine-Westphalia-Dormagen-Knechtstedener-Wald,Germany,51.062544,N,6.783857,E
21746,North-Rhine-Westphalia-Dortmund,Germany,51.58091,N,7.408719,E
21747,North-Rhine-Westphalia-Dortmund,Germany,51.58091,N,7.408719,E
21748,North-Rhine-Westphalia-Dortmund-Kirchderne,Germany,51.557836,N,7.517903,E
x1478,North-Rhine-Westphalia-Drove,Germany,50.732598,N,6.512218,E
21909,North-Rhine-Westphalia-Finnentrop-Heggen,Germany,51.153389,N,7.9436,E
x1358,North-Rhine-Westphalia-Herfterath,Germany,50.9060356,N,7.4750016,E
21749,North-Rhine-Westphalia-Herne,Germany,51.541211,N,7.201481,E
21750,North-Rhine-Westphalia-Herne,Germany,51.541211,N,7.201481,E
21910,North-Rhine-Westphalia-Kirchhundem-Albaum,Germany,51.05938,N,8.117087,E
21751,North-Rhine-Westphalia-Königswinter,Germany,50.691673,N,7.185988,E
x1461,North-Rhine-Westphalia-Königswinter-Ittenbach,Germany,50.690803,N,7.181568,E
21911,North-Rhine-Westphalia-Lennestadt-Altenhundem,Germany,51.05938,N,8.117087,E
21912,North-Rhine-Westphalia-Lennestadt-Altenhundem,Germany,51.05938,N,8.117087,E
x804,North-Rhine-Westphalia-Lennestadt-Altenhundem,Germany,51.05938,N,8.117087,E
21914,North-Rhine-Westphalia-Lennestadt-Altenhundem-Timmerschlade,Germany,51.110008,N,8.089,E
21913,North-Rhine-Westphalia-Lennestadt-Altenhundem-Lenne-river,Germany,51.10657,N,8.076,E
21752,North-Rhine-Westphalia-Mettmann-Neandertal,Germany,51.222153,N,6.962528,E
21753,North-Rhine-Westphalia-Mettmann-Neandertal,Germany,51.222153,N,6.962528,E
x384,North-Rhine-Westphalia-Mettmann-Neandertal,Germany,51.222153,N,6.962528,E
x386,North-Rhine-Westphalia-Mettmann-Neandertal,Germany,51.222153,N,6.962528,E
x407,North-Rhine-Westphalia-Mettmann-Neandertal,Germany,51.222153,N,6.962528,E
x417,North-Rhine-Westphalia-Mettmann-Neandertal,Germany,51.222153,N,6.962528,E
x418,North-Rhine-Westphalia-Mettmann-Neandertal,Germany,51.222153,N,6.962528,E
x419,North-Rhine-Westphalia-Mettmann-Neandertal,Germany,51.222153,N,6.962528,E
x420,North-Rhine-Westphalia-Mettmann-Neandertal,Germany,51.222153,N,6.962528,E
x421,North-Rhine-Westphalia-Mettmann-Neandertal,Germany,51.222153,N,6.962528,E
21754,North-Rhine-Westphalia-Much,Germany,50.946288,N,7.393688,E
21755,North-Rhine-Westphalia-Much,Germany,50.946288,N,7.393688,E
x358,North-Rhine-Westphalia-Much,Germany,50.946288,N,7.393688,E
x359,North-Rhine-Westphalia-Much,Germany,50.946288,N,7.393688,E
21757,North-Rhine-Westphalia-near-Dormagen-Knechtstedener-Wald,Germany,51.062544,N,6.783857,E
x641,North-Rhine-Westphalia-near-Dormagen-Knechtstedener-Wald,Germany,51.062544,N,6.783857,E
x642,North-Rhine-Westphalia-near-Dormagen-Knechtstedener-Wald,Germany,51.062544,N,6.783857,E
x643,North-Rhine-Westphalia-near-Dormagen-Knechtstedener-Wald,Germany,51.062544,N,6.783857,E
x644,North-Rhine-Westphalia-near-Dormagen-Knechtstedener-Wald,Germany,51.062544,N,6.783857,E
x645,North-Rhine-Westphalia-near-Dormagen-Knechtstedener-Wald,Germany,51.062544,N,6.783857,E
x646,North-Rhine-Westphalia-near-Dormagen-Knechtstedener-Wald,Germany,51.062544,N,6.783857,E
x647,North-Rhine-Westphalia-near-Dormagen-Knechtstedener-Wald,Germany,51.062544,N,6.783857,E
x648,North-Rhine-Westphalia-near-Dormagen-Knechtstedener-Wald,Germany,51.062544,N,6.783857,E
x649,North-Rhine-Westphalia-near-Dormagen-Knechtstedener-Wald,Germany,51.062544,N,6.783857,E
x650,North-Rhine-Westphalia-near-Dormagen-Knechtstedener-Wald,Germany,51.062544,N,6.783857,E
x651,North-Rhine-Westphalia-near-Dormagen-Knechtstedener-Wald,Germany,51.062544,N,6.783857,E
x652,North-Rhine-Westphalia-near-Dormagen-Knechtstedener-Wald,Germany,51.062544,N,6.783857,E
x653,North-Rhine-Westphalia-near-Dormagen-Knechtstedener-Wald,Germany,51.062544,N,6.783857,E
x654,North-Rhine-Westphalia-near-Dormagen-Knechtstedener-Wald,Germany,51.062544,N,6.783857,E
x655,North-Rhine-Westphalia-near-Dormagen-Knechtstedener-Wald,Germany,51.062544,N,6.783857,E
21758,North-Rhine-Westphalia-near-Olpe-Friesenhagen,Germany,50.904465,N,7.809388,E
x1468,North-Rhine-Westphalia-NideggenEifel,Germany,50.69363,N,6.484652,E
21759,North-Rhine-Westphalia-Rösrath,Germany,50.892287,N,7.156556,E
x1481,North-Rhine-Westphalia-Sankt-Augustin-Hangelar,Germany,50.7668515,N,7.1572258,E
21760,North-Rhine-Westphalia-Troisdorf,Germany,50.839227,N,7.160826,E
21761,North-Rhine-Westphalia-Wesel,Germany,51.690887,N,6.548107,E
21762,North-Rhine-Westphalia-Wuppertal-Kohlfurt,Germany,51.189726,N,7.118869,E
21763,North-Rhine-Westphalia-Wuppertal-Kohlfurt,Germany,51.189726,N,7.118869,E
x385,North-Rhine-Westphalia-Wuppertal-Kohlfurt,Germany,51.189726,N,7.118869,E
x409,North-Rhine-Westphalia-Wuppertal-Kohlfurt,Germany,51.189726,N,7.118869,E
x410,North-Rhine-Westphalia-Wuppertal-Kohlfurt,Germany,51.189726,N,7.118869,E
x411,North-Rhine-Westphalia-Wuppertal-Kohlfurt,Germany,51.189726,N,7.118869,E
x412,North-Rhine-Westphalia-Wuppertal-Kohlfurt,Germany,51.189726,N,7.118869,E
x413,North-Rhine-Westphalia-Wuppertal-Kohlfurt,Germany,51.189726,N,7.118869,E
x414,North-Rhine-Westphalia-Wuppertal-Kohlfurt,Germany,51.189726,N,7.118869,E
x415,North-Rhine-Westphalia-Wuppertal-Kohlfurt,Germany,51.189726,N,7.118869,E
x416,North-Rhine-Westphalia-Wuppertal-Kohlfurt,Germany,51.189726,N,7.118869,E
x422,North-Rhine-Westphalia-Wuppertal-Kohlfurt,Germany,51.189726,N,7.118869,E
x423,North-Rhine-Westphalia-Wuppertal-Kohlfurt,Germany,51.189726,N,7.118869,E
x424,North-Rhine-Westphalia-Wuppertal-Kohlfurt,Germany,51.189726,N,7.118869,E
x453,North-Rhine-Westphalia-Wuppertal-Kohlfurt,Germany,51.189726,N,7.118869,E
x454,North-Rhine-Westphalia-Wuppertal-Kohlfurt,Germany,51.189726,N,7.118869,E
x455,North-Rhine-Westphalia-Wuppertal-Kohlfurt,Germany,51.189726,N,7.118869,E
x456,North-Rhine-Westphalia-Wuppertal-Kohlfurt,Germany,51.189726,N,7.118869,E
x457,North-Rhine-Westphalia-Wuppertal-Kohlfurt,Germany,51.189726,N,7.118869,E
x458,North-Rhine-Westphalia-Wuppertal-Kohlfurt,Germany,51.189726,N,7.118869,E
x1445,North-Rhine-Westphalia-Wuppertal-Morsbachtal,Germany,51.1855022168778,N,7.18386919096957,E
21764,North-Rhine-Westphalia-Wuppertal-Neu-Dornap,Germany,51.242831,N,7.056695,E
x1446,North-Rhine-Westphalia-Wuppertal-Vorwerk,Germany,51.2461492,N,7.1913626,E
x998,North-Wales-Gwaith-Powder,Great Britain,52.9296671,N,-4.0549421,W
x999,North-Wales-Gwaith-Powder,Great Britain,52.9296671,N,-4.0549421,W
x676,Northhamptonshire-Sywell,Great Britain,52.2969869,N,-0.801134,W
x675,Nottinghamshire-Jacksdale,Great Britain,53.059319,N,-1.33522,W
x737,Nov-Dojran,North Macedonia,41.2251068,N,22.700315,E
x103,Novo-Selo,Bulgaria,44.1602049,N,22.7852906,E
x983,Novo-Selo,Bulgaria,44.1602049,N,22.7852906,E
x775,Nshkhark,Armenia,40.0020135,N,45.239049,E
x776,Nshkhark,Armenia,40.0020135,N,45.239049,E
x777,Nshkhark,Armenia,40.0020135,N,45.239049,E
x242,Oblast-Herson-Hola-Prystan-Heroiske,Ukraine,46.5129813,N,31.8946297,E
x1532,Öland-between-Stenasa-and-Resmo-Mockelmossen,Sweden,56.5127851,N,16.5990136,E
x271,Öland-Halltorps-Hage,Sweden,56.7944701,N,16.5735422,E
x272,Öland-Halltorps-Hage,Sweden,56.7944701,N,16.5735422,E
x273,Öland-Halltorps-Hage,Sweden,56.7944701,N,16.5735422,E
x625,Oldeberkoop,Netherlands,52.9386406,N,6.1307136,E
x626,Oldeberkoop,Netherlands,52.9386406,N,6.1307136,E
x627,Oldeberkoop,Netherlands,52.9386406,N,6.1307136,E
22048,Olomouc-Černovír,Czech Republic,49.62648,N,17.26302,E
21781,Oostvaardersplassen,Netherlands,52.445422,N,5.430197,E
21782,Oostvaardersplassen,Netherlands,52.445422,N,5.430197,E
x613,Oostvaardersplassen,Netherlands,52.445422,N,5.430197,E
x1553,Oslo-Gronmo-Solvdobla,Norway,59.8436736,N,10.8797276,E
x1552,Oslo-Maridalen-Skjervensaga,Norway,59.987553,N,10.7496345,E
x357,Ostfold-Moss,Norway,59.4340914,N,10.6583833,E
x1268,Pag-Vlasici,Croatia,44.3255932,N,15.2070907,E
x285,Pass-to-Slivarovo,Bulgaria,41.9677721,N,27.6644532,E
x950,Pejo-Javorov,Bulgaria,42.733883,N,25.48583,E
x951,Pejo-Javorov,Bulgaria,42.733883,N,25.48583,E
x1416,Peloponnesus-Itilo,Greece,36.7074239,N,22.3889476,E
x1424,Peloponnesus-Kalogria,Greece,36.8507723,N,22.2594861,E
x703,Peloponnesus-Kalogria,Greece,36.8507723,N,22.2594861,E
x1442,Peloponnesus-Kato-Kastanea,Greece,37.8660531,N,22.3832247,E
x607,Peloponnesus-Lake-Doxa,Greece,37.929167,N,22.286389,E
x701,Peloponnesus-Lake-Stimfalia,Greece,37.851111,N,22.461111,E
x1501,Peloponnesus-Limni-Strofilia-near-Kalogria,Greece,36.8507723,N,22.2594861,E
x1460,Peloponnesus-near-Pylos,Greece,36.9130756,N,21.6963472,E
x1467,Peloponnesus-near-Pylos,Greece,36.9130756,N,21.6963472,E
x1471,Peloponnesus-near-Pylos,Greece,36.9130756,N,21.6963472,E
x1475,Peloponnesus-near-Pylos,Greece,36.9130756,N,21.6963472,E
x1476,Peloponnesus-near-Pylos,Greece,36.9130756,N,21.6963472,E
x702,Peloponnesus-Strofilia,Greece,36.9818369,N,22.1503557,E
x656,Pembrokeshire-Talbenny,Great Britain,51.764168,N,-5.134103,W
22176,Piedmont-between-Viozene-and-Ponte-di-Nava,Italy,44.122962,N,7.819319,E
21943,Piedmont-Torino-Venaria-Reale,Italy,45.145547,N,7.600656,E
22049,Plinkout,Czech Republic,49.85512,N,17.20834,E
x249,Podlachia-Białowieża-National-Park,Poland,52.7228852,N,23.6555674,E
x250,Podlachia-Białowieża-National-Park,Poland,52.7228852,N,23.6555674,E
x251,Podlachia-Białowieża-National-Park,Poland,52.7228852,N,23.6555674,E
x91,Podlachia-Białowieża-National-Park,Poland,52.7228852,N,23.6555674,E
x995,Podlachia-Białowieża-National-Park,Poland,52.7228852,N,23.6555674,E
x996,Podlachia-Białowieża-National-Park,Poland,52.7228852,N,23.6555674,E
x997,Podlachia-Białowieża-National-Park,Poland,52.7228852,N,23.6555674,E
21821,Podlipa,Slovenia,46.005786,N,14.223075,E
x565,Pomorie,Bulgaria,42.5680485,N,27.6155704,E
x982,Porodin,North Macedonia,40.9370749,N,21.3746761,E
22050,Pouzdřanský-rybník,Czech Republic,48.91948,N,16.61558,E
21822,Pragersko,Slovenia,46.395253,N,15.65855,E
x282,Primorsko,Bulgaria,42.2683746,N,27.753286,E
x284,Primorsko,Bulgaria,42.2683746,N,27.753286,E
x577,Prohor,Serbia,42.3304812,N,21.8959839,E
21669,Puy-de-Dôme-near-Murol-Monneaux,France,45.5589,N,2.86927,E
21877,Pyrénées-Atlantiques-Bedous,France,43.0154,N,-0.605506,W
21878,Pyrénées-Atlantiques-Bedous,France,43.0154,N,-0.605506,W
21879,Pyrénées-Atlantiques-Bilheres,France,43.0649,N,-0.469124,W
21881,Pyrénées-Atlantiques-Borce,France,42.818383,N,-0.561782,W
21880,Pyrénées-Atlantiques-Borce,France,42.818383,N,-0.561782,W
21882,Pyrénées-Atlantiques-Buzy,France,43.120482,N,-0.449961,W
21883,Pyrénées-Atlantiques-Buzy,France,43.120482,N,-0.449961,W
21884,Pyrénées-Atlantiques-Estérençuby,France,43.032548,N,-1.1809,W
21885,Pyrénées-Atlantiques-Etsaut,France,42.912983,N,-0.573742,W
21886,Pyrénées-Atlantiques-Licq-Athérey,France,43.0494,N,-0.8853,W
21887,Pyrénées-Atlantiques-Louvie-Juzon,France,43.093117,N,-0.382679,W
21889,Pyrénées-Atlantiques-Saint-Jean-de-Luz,France,43.387335,N,-1.6635,W
21888,Pyrénées-Atlantiques-Sarrance,France,43.0351,N,-0.5761,W
21890,Pyrénées-Atlantiques-Urepel,France,43.0463,N,-1.3955,W
21891,Pyrénées-Atlantiques-Urepel,France,43.0463,N,-1.3955,W
21892,Pyrénées-Atlantiques-Urepel,France,43.0463,N,-1.3955,W
x108,Pyrénées-Orientales-3-km-NE-Prats-de-Mollo-la-Preste,France,42.4245,N,2.507,E
x1484,Pyrénées-Orientales-Argelés-sur-Mer,France,42.55,N,3.0239,E
21924,Pyrénées-Orientales-Bolquere,France,42.5156,N,2.0675,E
x118,Pyrénées-Orientales-Col-de-la-Perche,France,42.5055,N,2.0854,E
x119,Pyrénées-Orientales-Col-de-la-Perche,France,42.5055,N,2.0854,E
21925,Pyrénées-Orientales-Millas,France,42.693287,N,2.696056,E
21926,Pyrénées-Orientales-river-near-Perpignan,France,42.712149,N,2.9333,E
21659,Rab-Lopar,Croatia,44.842116,N,14.742422,E
21660,Rab-Lopar,Croatia,44.842116,N,14.742422,E
x954,Regetovka,Slovakia,49.4202627,N,21.2744859,E
x1334,Rhineland-Palatinate-Bürdenbach,Germany,50.604541,N,7.517467,E
x1359,Rhineland-Palatinate-Germersheim,Germany,49.2182,N,8.368275,E
x1459,Rhineland-Palatinate-Horhausen,Germany,50.362656,N,7.891517,E
21765,Rhineland-Palatinate-Lieser,Germany,49.9203,N,7.019,E
x1338,Rhineland-Palatinate-Nauroth,Germany,50.699502,N,7.875981,E
21766,Rhineland-Palatinate-near-Dreis,Germany,49.9331,N,6.8262,E
x1341,Rhineland-Palatinate-SW-Koblenz-between-Macken-and-Burgen,Germany,50.1954,N,7.410092,E
x1458,Rhineland-Palatinate-Weltersburg,Germany,50.522295,N,7.958175,E
x622,Rimburg,Netherlands,50.9156788,N,6.0831427,E
x623,Rimburg,Netherlands,50.9156788,N,6.0831427,E
x624,Rimburg,Netherlands,50.9156788,N,6.0831427,E
x283,Ropotamo,Bulgaria,42.3020098178653,N,27.6536721677342,E
x960,Ropotamo,Bulgaria,42.3020098178653,N,27.6536721677342,E
x961,Ropotamo,Bulgaria,42.3020098178653,N,27.6536721677342,E
21793,Rusovce,Slovakia,48.06,N,17.15,E
21794,Rusovce,Slovakia,48.06,N,17.15,E
x373,Ružomberok,Slovakia,49.0752393,N,19.3066002,E
x1474,S-Budapest,Hungary,47.497912,N,19.040235,E
x1395,Saarland-HirschbergNeunkirchen,Germany,49.32,N,7.25,E
22051,Sadská,Czech Republic,50.15497,N,14.98043,E
21934,Salamanca-Las-Batuecas-Sierra-de-Francia,Spain,40.452434,N,-6.1173,W
x1486,Samos,Greece,37.7547857,N,26.9777701,E
x387,Samothrace,Greece,40.4476834,N,25.5917918,E
x388,Samothrace,Greece,40.4476834,N,25.5917918,E
x389,Samothrace,Greece,40.4476834,N,25.5917918,E
x390,Samothrace,Greece,40.4476834,N,25.5917918,E
x391,Samothrace,Greece,40.4476834,N,25.5917918,E
x392,Samothrace,Greece,40.4476834,N,25.5917918,E
x393,Samothrace,Greece,40.4476834,N,25.5917918,E
x394,Samothrace,Greece,40.4476834,N,25.5917918,E
x395,Samothrace,Greece,40.4476834,N,25.5917918,E
x396,Samothrace,Greece,40.4476834,N,25.5917918,E
x397,Samothrace,Greece,40.4476834,N,25.5917918,E
x398,Samothrace,Greece,40.4476834,N,25.5917918,E
x399,Samothrace,Greece,40.4476834,N,25.5917918,E
x400,Samothrace,Greece,40.4476834,N,25.5917918,E
x401,Samothrace,Greece,40.4476834,N,25.5917918,E
x229,Sandanksi,Bulgaria,41.5678434,N,23.2803538,E
x231,Sandanska-Bistrica-Valley,Bulgaria,41.6281987849224,N,23.3228074136122,E
21893,Saône-et-Loire-Etang-neuf,France,46.5553,N,4.425945,E
21894,Saône-et-Loire-Etang-neuf,France,46.5553,N,4.425945,E
x845,Saône-et-Loire-Etang-neuf,France,46.5553,N,4.425945,E
21895,Saône-et-Loire-Le-Rousset,France,46.5814,N,4.4521,E
x886,Sardinia-Cagliari-Sinnai,Italy,39.293505,N,9.392273,E
x1411,Sardinia-Limbara-Mountains,Italy,40.850436,N,9.174557,E
x1412,Sardinia-Limbara-Mountains,Italy,40.850436,N,9.174557,E
x805,Sardinia-Monte-Albo,Italy,40.534375,N,9.584363,E
x891,Sardinia-near-Grotta-de-su-Ventu,Italy,40.243836,N,9.490072,E
x892,Sardinia-near-Grotta-de-su-Ventu,Italy,40.243836,N,9.490072,E
x806,Sardinia-Sette-Fratelli,Italy,39.264079,N,9.408487,E
x807,Sardinia-Sette-Fratelli,Italy,39.264079,N,9.408487,E
x808,Sardinia-Sette-Fratelli,Italy,39.264079,N,9.408487,E
x974,Sasoviči-Zelenica-Boka-kotorska,Montenegro,42.4655408,N,18.5670952,E
22072,Saxony-Altenberg-Bärenstein,Germany,50.801454,N,13.776956,E
x218,Saxony-Anhalt-Altenbrak,Germany,51.726895,N,10.941346,E
x241,Saxony-Anhalt-Altenbrak,Germany,51.726895,N,10.941346,E
22114,Saxony-Anhalt-near-Klobikau-Lake-Geißeltal,Germany,51.336655,N,11.831414,E
x1482,Saxony-Anhalt-Sangerhausen,Germany,51.4725415,N,11.2995045,E
22073,Saxony-Bad-Gottleuba,Germany,50.845947,N,13.944297,E
x216,Saxony-Bad-Gottleuba,Germany,50.845947,N,13.944297,E
x223,Saxony-Bärnsdorf,Germany,51.163252,N,13.730063,E
21767,Saxony-Bärnsdorf,Germany,51.163252,N,13.730063,E
22074,Saxony-between-Burkhartswalde-and-Obermunzig,Germany,51.07894,N,13.420644,E
21768,Saxony-between-Volkersdorf-and-Boxdorf,Germany,51.143764,N,13.714442,E
22076,Saxony-Biehla,Germany,51.319321,N,14.094379,E
x1227,Saxony-Biehla,Germany,51.319321,N,14.094379,E
22077,Saxony-Borna,Germany,51.125075,N,12.492084,E
x214,Saxony-Borna,Germany,51.125075,N,12.492084,E
x1214,Saxony-Burkau,Germany,51.176303,N,14.173772,E
22078,Saxony-Chemnitz,Germany,50.834565,N,12.922554,E
x224,Saxony-Chemnitz,Germany,50.834565,N,12.922554,E
x245,Saxony-Chemnitz,Germany,50.834565,N,12.922554,E
x1246,Saxony-Cunnersdorf,Germany,51.184508,N,13.807747,E
x1237,Saxony-Cunnersdorf,Germany,51.184508,N,13.807747,E
22079,Saxony-Dahlen,Germany,51.364493,N,12.993965,E
x222,Saxony-Dahlen,Germany,51.364493,N,12.993965,E
x1235,Saxony-Döbra,Germany,50.8374128,N,13.8396146,E
22080,Saxony-Dorfhain,Germany,50.936147,N,13.562436,E
22081,Saxony-Dresden,Germany,51.115593,N,13.834863,E
x244,Saxony-Dresden,Germany,51.115593,N,13.834863,E
x246,Saxony-Dresden,Germany,51.115593,N,13.834863,E
x247,Saxony-Dresden,Germany,51.115593,N,13.834863,E
x351,Saxony-Dresden,Germany,51.115593,N,13.834863,E
x598,Saxony-Dresden,Germany,51.115593,N,13.834863,E
22082,Saxony-Dresden-2,Germany,51.095009,N,13.7731815,E
22084,Saxony-Dresden-Klotzsche,Germany,51.132562,N,13.796239,E
22085,Saxony-Dresden-Klotzsche,Germany,51.132562,N,13.796239,E
22083,Saxony-Dresden-Klotzsche-Airport,Germany,51.138809,N,13.761964,E
22087,Saxony-Dresden-Langebrück,Germany,51.127553,N,13.842916,E
x225,Saxony-Dresden-Langebrück,Germany,51.127553,N,13.842916,E
22088,Saxony-Dresden-Weixdorf,Germany,51.144948,N,13.800359,E
22089,Saxony-Dresden-Weixdorf,Germany,51.144948,N,13.800359,E
x1217,Saxony-Droben,Germany,51.2891825,N,14.4332472,E
x1232,Saxony-Dubringer-Moor,Germany,51.3989125,N,14.1802607,E
x1228,Saxony-Fischbach,Germany,51.084332,N,14.018869,E
x1218,Saxony-Groß-Neida,Germany,51.420195,N,14.2383054,E
x1219,Saxony-Groß-Neida,Germany,51.420195,N,14.2383054,E
x1242,Saxony-Guttau,Germany,51.2586384,N,14.5559931,E
22090,Saxony-Hartmannsgrün,Germany,50.558406,N,12.293437,E
22091,Saxony-Helbigsdorf,Germany,51.016841,N,13.473366,E
x1244,Saxony-Jetscheba,Germany,51.296813,N,14.48287,E
x1213,Saxony-Kamenz,Germany,51.266856,N,14.075146,E
x1230,Saxony-Kamenz,Germany,51.266856,N,14.075146,E
x1248,Saxony-Kamenz,Germany,51.266856,N,14.075146,E
22092,Saxony-Karsdorf,Germany,50.930724,N,13.696707,E
22093,Saxony-Karsdorf,Germany,50.930724,N,13.696707,E
x274,Saxony-Karsdorf,Germany,50.930724,N,13.696707,E
x275,Saxony-Karsdorf,Germany,50.930724,N,13.696707,E
x276,Saxony-Karsdorf,Germany,50.930724,N,13.696707,E
x277,Saxony-Karsdorf,Germany,50.930724,N,13.696707,E
x278,Saxony-Karsdorf,Germany,50.930724,N,13.696707,E
22094,Saxony-Kleba,Germany,50.961995,N,13.757107,E
22095,Saxony-Klingenberg,Germany,50.919803,N,13.531712,E
